~VERSION 
 VERS.        2.00                     :CWLS Log ASCII Standard Version
 WRAP.        NO                       :One Line per depth step
 PROG.        2.0.76                   :LAS Program name and version
SOURCE.       AIT_  :DLIS File Name
~WELL 
 STRT.M       347.50000                          :START DEPTH
 STOP.M       424.50000                          :STOP DEPTH
 STEP.M       0.50000                            :STEP
 NULL.        -999.25000                         :NULL VALUE
 COMP.        KOREA NATIONAL OIL CORPORATION     :COMPANY
 WELL.        xxxx xxxx 00-0-00-0             :WELL
  FLD.        FIELD                            :FIELD
  LOC.        00-01-006-0W0M                     :LOCATION
 PROV.        ALBERTA                            :PROVINCE
  LIC.        0234567                            :LICENCE NUMBER
  UWI.        1AA333107668W200                   :UNIQUE WELL ID
 SRVC.        SCHLUMBERGER                       :SERVICE COMPANY
 DATE.        30-JAN-2007                        :LOGGING DATE
~CURVE 
#MNEM.UNIT    VALUE                    :DESCRIPTION
#----.----    ---------------          :-------------------
 DEPT.M       00 001 00 00             :Depth Index
AHF30.OHMM                             :ARRAY INDUCTION FOUR FOOT RESISTIVITY A30
AHF60.OHMM                             :ARRAY INDUCTION FOUR FOOT RESISTIVITY A60
AHF90.OHMM                             :ARRAY INDUCTION FOUR FOOT RESISTIVITY A90
AHFCO90.MM/M                           :ARRAY INDUCTION FOUR FOOT CONDUCTIVITY A90
 AHMF.OHMM                             :ARRAY INDUCTION MUD RESISTIVITY FULLY CALIBRATED
 GDEV.DEG                              :HGNS DEVIATION
   GR.GAPI                             :GAMMA-RAY
 HTEM.DEGC                             :HTC TEMPERATURE
 RXOZ.OHMM                             :MCFL STANDARD RESOLUTION INVADED ZONE RESISTIVITY
   SP.MV                               :SPONTANEOUS POTENTIAL
 TENS.LBF                              :CABLE TENSION
   DT.US/M                             :DELTA-T
 HCAL.MM                               :HRCC CAL. CALIPER
  TT1.US                               :TRANSIT TIME 1
  TT2.US                               :TRANSIT TIME 2
  TT3.US                               :TRANSIT TIME 3
  TT4.US                               :TRANSIT TIME 4
DPHI_DOL.V/V                           :DENSITY POROSITY (MATRIX DOLOMITE)
DPHI_LIM.V/V                           :DENSITY POROSITY (MATRIX LIMESTONE)
DPHI_SAN.V/V                           :DENSITY POROSITY (MATRIX SANDSTONE)
 HDRA.K/M3                             :HRDD DENSITY CORRECTION
NPOR_DOL.V/V                           :ENHANCED THERMAL NEUTRON POROSITY (MATRIX DOLOMITE)
NPOR_LIM.V/V                           :ENHANCED THERMAL NEUTRON POROSITY (MATRIX LIMESTONE)
NPOR_SAN.V/V                           :ENHANCED THERMAL NEUTRON POROSITY (MATRIX SANDSTONE)
 PEFZ.                                 :HRDD STANDARD RESOLUTION FORMATION PHOTOELECTRIC FACTOR
 RHOZ.K/M3                             :HRDD STANDARD RESOLUTION FORMATION DENSITY
~PARAMETER 
#MNEM.UNIT    VALUE                    :DESCRIPTION
#----.----    ---------------          :-------------------
  APD.M       3.7                      :ABOVE PERMANENT DATUM
  LIC.        0369058                  :LICENSE NUMBER
  BHT.DEGC    21                       :BOTTOM HOLE TEMPERATURE (USED IN CALCULATIONS)
  BLI.M       420.8                    :BOTTOM LOG INTERVAL
   BS.MM      251.000                  :BIT SIZE
 CSGD.M       189                      :CASING BOTTOM OF DRILLER
 CSGL.M       189                      :CASING BOTTOM OF LOGGER
   CN.        SAKOVIA NATIONAL OIL CORPORATION  :COMPANY NAME
 PROV.        ALBERTA                  :PROVINCE
 CSGS.MM      177.800                  :CURRENT CASING SIZE
 DATE.        30-JAN-2007              :LOGGING DATE
  DCS.        30-JAN-2007              :DATE CIRCULATION STOPPED
 MUDD.K/M3    1130                     :DRILLING FLUID DENSITY
   FL.CM3     8                        :DRILLING FLUID LOSS
   PH.        9.5                      :DRILLING FLUID PH
  MUD.        GEL CHEM                 :DRILLING FLUID TYPE
 MUDV.S       80                       :DRILLING FLUID VISCOSITY
 DLAB.        31-JAN-2007              :DATE LOGGER AT BOTTOM
 DREF.        KELLY BUSHING            :DRILLING MEASURED FROM
  EDF.M       602.3                    :ELEVATION OF DERRICK FLOOR
   GL.M       598.6                    :ELEVATION OF GROUND LEVEL
 EREF.M       602.3                    :ELEVATION OF KELLY BUSHING
  ENG.        BRIAN GREEN             :ENGINEER'S NAME
   FL.        12-01-076-7W4M           :FIELD LOCATION
  FL1.        1AA333107668W200         :FIELD LOCATION LINE 1
  FL2.                                 :FIELD LOCATION LINE 2
   FN.        FIELD                  :FIELD NAME
 HID1.        ARRAY INDUCTION - SP LOG :HEADER IDENTIFIER LINE 1
 HID2.                                 :HEADER IDENTIFIER LINE 2
 HIDE.        PLATFORM EXPRESS         :HEADER IDENTIFIER
 EREF.        KELLY BUSHING            :LOG MEASURED FROM
 BASE.        NISKU - WP               :LOGGING UNIT LOCATION
 UNIT.        3030                     :LOGGING UNIT NUMBER
 MATR.        SAND                     :ROCK MATRIX TYPE
 RMCT.DEGC    9                        :MUD CAKE SAMPLE TEMPERATURE
 MDEN.K/M3    2650                     :MATRIX DENSITY
 RMFT.DEGC    9                        :MUD FILTRATE SAMPLE TEMPERATURE
 TMAX.DEGC    21                       :MAXIMUM RECORDED TEMPERATURE
 MRT1.                                 :MAX RECORDED TEMP 1
 MRT2.                                 :MAX RECORDED TEMP 2
 MUDS.        FLOWLINE                 :MUD SAMPLE SOURCE
  RMT.DEGC    9                        :MUD SAMPLE TEMPERATURE
  NMT.        NOBARITE                 :NUCLEAR MUD TYPE
  OS1.        AIT-TLD-HGNS-BHC         :OTHER SERVICES LINE 1
  OS2.                                 :OTHER SERVICES LINE 2
  OS3.                                 :OTHER SERVICES LINE 3
  OS4.                                 :OTHER SERVICES LINE 4
  OS5.                                 :OTHER SERVICES LINE 5
 PDAT.        GROUND LEVEL             :PERMANENT DATUM
   R1.        ALL TOOLS RUN AS PER TOOL SKETCH.  :REMARK LINE 1
  R10.                                 :REMARK LINE 10
  R11.                                 :REMARK LINE 11
  R12.        -                        :REMARK LINE 12
  R13.        -                        :REMARK LINE 13
  R14.        -                        :REMARK LINE 14
  R15.        -                        :REMARK LINE 15
  R16.        RIG: RIG #9        :REMARK LINE 16
  R17.        CREW: D. GILLS, K. SAWSHANK  :REMARK LINE 17
   R2.        AIT RUN IN COMPUTE STANDOFF MODE.  :REMARK LINE 2
   R3.        HGNS RUN WITHOUT BOWSPRING DUE TO HOLE SIZE.  :REMARK LINE 3
   R4.        SONIC RUN WITH STANDOFFS TO IMPROVE CENTRALIZATION.  :REMARK LINE 4
   R5.        -                        :REMARK LINE 5
   R6.        NO HI-RESOLUTION REQUESTED.  :REMARK LINE 6
   R7.        NO FMI LOG REQUESTED     :REMARK LINE 7
   R8.        -                        :REMARK LINE 8
   R9.                                 :REMARK LINE 9
RANGE.        07W4M                    :RANGE
  RMB.        4.684                    :OF MUD - BHT
  RMC.OHMM    10.320                   :RESISTIVITY OF MUD CAKE SAMPLE
 RMFB.        3.517                    :OF MUD FILTRATE - BHT
  RMF.OHMM    4.820                    :RESISTIVITY OF MUD FILTRATE SAMPLE
   RM.OHMM    6.420                    :RESISTIVITY OF MUD SAMPLE
  RUN.        ONE                      :RUN NUMBER
SECTION.      12-01                    :SECTION
 FACT.        11505834                 :FACTS NUMBER
 TIMC.        21:05                    :TIME CIRCULATION STOPPED
  TDD.M       424                      :TOTAL DEPTH - DRILLER
  TDL.M       423.2                    :TOTAL DEPTH - LOGGER
 TIML.        0:15                     :TIME LOGGER AT BOTTOM
  TLI.M       189                      :TOP LOG INTERVAL
TOWNSHIP.     076                      :TOWNSHIP
  WIT.        BILL HICKOCK           :WITNESS'S NAME
   WN.        BOB FIELD 00-0-00-0   :WELL NAME
~ASCII   DEPT        AHF30        AHF60        AHF90      AHFCO90         AHMF         GDEV           GR         HTEM         RXOZ           SP         TENS           DT         HCAL          TT1          TT2          TT3          TT4     DPHI_DOL     DPHI_LIM     DPHI_SAN         HDRA     NPOR_DOL     NPOR_LIM     NPOR_SAN         PEFZ         RHOZ
# ...
    382.00000     28.64049     28.20558     28.01376     35.70165      6.38605      2.28945     77.18941     11.88365     68.57174     59.67372    933.34121    376.82852    154.35293    718.81052    488.48656    718.88523    490.01234      0.36289      0.31073      0.28566     -2.57007      0.27720      0.31723      0.36413      1.88982   2181.43992
    382.50000     24.68633     24.45626     23.75907     42.08931      6.36150      2.12017     69.51240     11.88365     39.52541     60.48376   1070.88189    375.27733    154.16516    717.59417    487.31916    716.73907    489.31408      0.36297      0.31081      0.28575     -1.32794      0.26978      0.30774      0.35585      1.96152   2177.19414
    383.00000     26.40921     26.76801     25.81132     38.74910      6.33641      0.80612     85.23110     11.88365     31.48443     61.39862    920.18635    379.90956    154.38579    725.10141    491.00745    725.38974    491.68142      0.35645      0.30376      0.27845     -1.97927      0.26536      0.30287      0.35109      2.00822   2191.29407
    383.50000     30.64544     30.24465     28.35551     35.27935      6.35015      2.15236     61.73818     11.88365    125.80197     57.33366   1036.81102    391.24423    155.52881    720.84257    495.85105    720.41620    495.98008      0.39248      0.34274      0.31884     -5.98611      0.28102      0.32137      0.36820      1.86069   2119.02526
    384.00000     22.59081     23.08277     21.63305     46.22828      6.33944      2.07799     88.09987     11.88365     27.49637     60.35335   1051.92913    368.21512    152.90715    728.93537    486.30547    728.74866    486.16950      0.33634      0.28201      0.25590      7.52835      0.25133      0.28628      0.33561      2.01689   2233.20435
    384.50000     24.17722     24.14529     23.46452     42.61908      6.30769      0.00000     55.86139     11.88365     57.39209     49.03133   1158.00000    389.73443    152.37671    721.74589    494.45279    720.57076    495.25888      0.39178      0.34198      0.31805      8.96952      0.30005      0.34114      0.38822      1.85113   2124.71693
    385.00000     20.71368     19.94829     20.44311     48.93060      6.36539      0.00000     77.24262     11.88365     47.98409     56.40830    993.53281    382.97674    152.51988    721.76836    496.24687    721.74837    494.98754      0.35422      0.30135      0.27595     20.16836      0.27542      0.31439      0.36203      1.96714   2195.21282
    385.50000     16.58145     17.11796     16.72470     59.79197      6.30017      0.00000     90.24673     11.88365     25.87397     57.61368   1045.81890    368.46591    151.28298    704.17838    482.78072    706.89753    483.85031      0.30750      0.25080      0.22356     36.57040      0.24435      0.27868      0.32795      2.21640   2282.93386
    386.00000     18.78603     19.43406     18.90591     52.90129      6.28898      0.22926     79.19942     11.88365     39.29080     58.89633   1024.45144    366.23157    152.28752    712.58434    475.77939    711.60496    485.41659      0.31069      0.25426      0.22714     26.43787      0.22604      0.25703      0.30752      2.16810   2274.39470
    386.50000     21.26597     21.98758     21.57188     46.35664      6.32320      0.00000     74.56857     11.88365     55.12571     60.59596    802.74016    377.57412    151.50361    716.92122    485.68904    711.60428    485.67269      0.37211      0.32071      0.29601      0.79947      0.29775      0.33890      0.38583      2.05266   2159.24464
    387.00000     19.95974     20.31004     20.15499     49.61563      6.35458      0.00000     76.61152     11.88365     31.19132     57.50443   1230.37795    376.39519    150.12354    719.00698    489.27134    719.97010    488.73128      0.34870      0.29538      0.26975      7.52763      0.24601      0.28145      0.33009      2.06614   2210.30363
    387.50000     24.43405     24.34921     24.24440     41.26788      6.36242      0.90246     68.82756     11.88365     48.78026     58.16322   1103.41207    379.15389    150.64459    719.56579    486.25339    719.48942    484.15435      0.37382      0.32255      0.29791     18.75642      0.29630      0.33904      0.38459      2.02951   2153.15991
    388.00000     39.66166     38.60274     38.19665     26.20790      6.39885      0.93857     57.16392     11.88365     61.35627     53.03576    960.32021    378.25551    152.97287    724.83271    493.68596    726.90474    493.97610      0.35432      0.30146      0.27605     27.10564      0.29022      0.33121      0.37796      1.85081   2195.76241
    388.50000     86.17774     84.92440     81.47276     12.28276      6.45081      0.00000     43.23454     11.88365    248.15390     48.16339    972.06299    392.89535    156.46761    731.98959    499.23732    730.55827    502.36384      0.40650      0.35791      0.33457      1.43688      0.29334      0.33607      0.38161      1.66905   2098.06797
    389.00000     56.80937     57.15018     54.96585     18.19381      6.39912      0.00000     55.92305     11.88365    124.80927     55.32283   1103.06299    385.92522    156.83610    731.71676    495.69766    730.18559    492.59725      0.38906      0.33904      0.31501     -3.53686      0.25948      0.29644      0.34473      1.82625   2129.14867
    389.50000     44.22595     43.70442     42.94283     23.29193      6.39545      0.00000     66.78762     11.88365     40.77711     56.27625   1028.49344    373.23194    158.04013    728.05320    488.80153    728.12933    488.44494      0.36939      0.31777      0.29296     -2.04071      0.29610      0.33855      0.38440      1.83979   2166.56550
    390.00000     58.73123     58.15213     56.92737     17.56685      6.41726      0.08928     56.51427     11.88365    120.13733     51.37451   1143.39370    388.41089    158.33821    730.83575    500.16011    731.52789    500.29503      0.40163      0.35265      0.32911     -6.47695      0.30388      0.34501      0.39218      1.74941   2106.71726
    390.50000     52.59573     53.19128     51.57881     19.39163      6.41233      0.67559     52.82253     11.88365     80.29925     56.01903   1044.14961    393.53941    158.92811    733.30612    500.42326    737.37326    498.81098      0.40144      0.35244      0.32889      0.20491      0.28393      0.32499      0.37141      1.72841   2105.98791
    391.00000     48.05675     47.70108     47.59018     21.02518      6.38975      0.00000     62.32900     11.88365     53.09380     49.02346   1008.34383    382.21254    153.65820    741.02101    498.79232    740.19873    499.01566      0.38419      0.33377      0.30954     29.52613      0.27636      0.31772      0.36354      1.81440   2140.94579
    391.50000     89.61128     86.60737     88.81650     11.26974      6.43239      0.46791     37.49367     11.88365    333.65143     37.98524    980.20472    401.01347    157.97207    740.10735    507.19311    740.23773    508.05288      0.41932      0.37178      0.34893      3.94683      0.28042      0.32112      0.36764      1.65181   2074.04866
    392.00000     83.50753     81.16577     83.11391     12.03304      6.42345      3.65638     49.47577     11.88365    133.22101     36.30791   1025.50656    392.96541    158.61515    751.15736    504.77859    750.44278    504.58511      0.41502      0.36713      0.34411     -4.37563      0.27140      0.31055      0.35783      1.70341   2082.33183
    392.50000     68.04127     68.15014     65.30942     15.31394      6.40629      2.73055     47.56237     11.88365    231.53693     40.31578    988.47769    398.89634    158.33821    746.54130    506.81650    745.59995    506.05703      0.42169      0.37434      0.35159     -5.50668      0.30692      0.35194      0.39614      1.70974   2067.96220
    393.00000     53.05573     54.86421     52.17893     19.16483      6.37500      2.99783     45.76560     11.88365     92.77254     40.28002    912.31496    394.18695    156.23997    748.25226    506.14962    748.86046    506.03931      0.40557      0.35690      0.33352     -2.89841      0.28911      0.33193      0.37721      1.76311   2099.86811
