~VERSION 
 VERS.        2.00                     :CWLS Log ASCII Standard Version
 WRAP.        NO                       :One Line per depth step
 PROG.        2.0.76                   :LAS Program name and version
SOURCE.       AIT_  :DLIS File Name
~WELL 
 STRT.M       347.50000                          :START DEPTH
 STOP.M       424.50000                          :STOP DEPTH
 STEP.M       0.50000                            :STEP
 NULL.        -999.25000                         :NULL VALUE
 COMP.        KOREA NATIONAL OIL CORPORATION     :COMPANY
 WELL.        xxxx xxxx 00-0-00-0             :WELL
  FLD.        FIELD                            :FIELD
  LOC.        00-01-006-0W0M                     :LOCATION
 PROV.        ALBERTA                            :PROVINCE
  LIC.        0234567                            :LICENCE NUMBER
  UWI.        1AA333107668W200                   :UNIQUE WELL ID
 SRVC.        SCHLUMBERGER                       :SERVICE COMPANY
 DATE.        30-JAN-2007                        :LOGGING DATE
~CURVE 
#MNEM.UNIT    VALUE                    :DESCRIPTION
#----.----    ---------------          :-------------------
 DEPT.M       00 001 00 00             :Depth Index
AHF30.OHMM                             :ARRAY INDUCTION FOUR FOOT RESISTIVITY A30
AHF60.OHMM                             :ARRAY INDUCTION FOUR FOOT RESISTIVITY A60
AHF90.OHMM                             :ARRAY INDUCTION FOUR FOOT RESISTIVITY A90
AHFCO90.MM/M                           :ARRAY INDUCTION FOUR FOOT CONDUCTIVITY A90
 AHMF.OHMM                             :ARRAY INDUCTION MUD RESISTIVITY FULLY CALIBRATED
 GDEV.DEG                              :HGNS DEVIATION
   GR.GAPI                             :GAMMA-RAY
 HTEM.DEGC                             :HTC TEMPERATURE
 RXOZ.OHMM                             :MCFL STANDARD RESOLUTION INVADED ZONE RESISTIVITY
   SP.MV                               :SPONTANEOUS POTENTIAL
 TENS.LBF                              :CABLE TENSION
   DT.US/M                             :DELTA-T
 HCAL.MM                               :HRCC CAL. CALIPER
  TT1.US                               :TRANSIT TIME 1
  TT2.US                               :TRANSIT TIME 2
  TT3.US                               :TRANSIT TIME 3
  TT4.US                               :TRANSIT TIME 4
DPHI_DOL.V/V                           :DENSITY POROSITY (MATRIX DOLOMITE)
DPHI_LIM.V/V                           :DENSITY POROSITY (MATRIX LIMESTONE)
DPHI_SAN.V/V                           :DENSITY POROSITY (MATRIX SANDSTONE)
 HDRA.K/M3                             :HRDD DENSITY CORRECTION
NPOR_DOL.V/V                           :ENHANCED THERMAL NEUTRON POROSITY (MATRIX DOLOMITE)
NPOR_LIM.V/V                           :ENHANCED THERMAL NEUTRON POROSITY (MATRIX LIMESTONE)
NPOR_SAN.V/V                           :ENHANCED THERMAL NEUTRON POROSITY (MATRIX SANDSTONE)
 PEFZ.                                 :HRDD STANDARD RESOLUTION FORMATION PHOTOELECTRIC FACTOR
 RHOZ.K/M3                             :HRDD STANDARD RESOLUTION FORMATION DENSITY
~PARAMETER 
#MNEM.UNIT    VALUE                    :DESCRIPTION
#----.----    ---------------          :-------------------
  APD.M       3.7                      :ABOVE PERMANENT DATUM
  LIC.        0369058                  :LICENSE NUMBER
  BHT.DEGC    21                       :BOTTOM HOLE TEMPERATURE (USED IN CALCULATIONS)
  BLI.M       420.8                    :BOTTOM LOG INTERVAL
   BS.MM      251.000                  :BIT SIZE
 CSGD.M       189                      :CASING BOTTOM OF DRILLER
 CSGL.M       189                      :CASING BOTTOM OF LOGGER
   CN.        SAKOVIA NATIONAL OIL CORPORATION  :COMPANY NAME
 PROV.        ALBERTA                  :PROVINCE
 CSGS.MM      177.800                  :CURRENT CASING SIZE
 DATE.        30-JAN-2007              :LOGGING DATE
  DCS.        30-JAN-2007              :DATE CIRCULATION STOPPED
 MUDD.K/M3    1130                     :DRILLING FLUID DENSITY
   FL.CM3     8                        :DRILLING FLUID LOSS
   PH.        9.5                      :DRILLING FLUID PH
  MUD.        GEL CHEM                 :DRILLING FLUID TYPE
 MUDV.S       80                       :DRILLING FLUID VISCOSITY
 DLAB.        31-JAN-2007              :DATE LOGGER AT BOTTOM
 DREF.        KELLY BUSHING            :DRILLING MEASURED FROM
  EDF.M       602.3                    :ELEVATION OF DERRICK FLOOR
   GL.M       598.6                    :ELEVATION OF GROUND LEVEL
 EREF.M       602.3                    :ELEVATION OF KELLY BUSHING
  ENG.        BRIAN GREEN             :ENGINEER'S NAME
   FL.        12-01-076-7W4M           :FIELD LOCATION
  FL1.        1AA333107668W200         :FIELD LOCATION LINE 1
  FL2.                                 :FIELD LOCATION LINE 2
   FN.        FIELD                  :FIELD NAME
 HID1.        ARRAY INDUCTION - SP LOG :HEADER IDENTIFIER LINE 1
 HID2.                                 :HEADER IDENTIFIER LINE 2
 HIDE.        PLATFORM EXPRESS         :HEADER IDENTIFIER
 EREF.        KELLY BUSHING            :LOG MEASURED FROM
 BASE.        NISKU - WP               :LOGGING UNIT LOCATION
 UNIT.        3030                     :LOGGING UNIT NUMBER
 MATR.        SAND                     :ROCK MATRIX TYPE
 RMCT.DEGC    9                        :MUD CAKE SAMPLE TEMPERATURE
 MDEN.K/M3    2650                     :MATRIX DENSITY
 RMFT.DEGC    9                        :MUD FILTRATE SAMPLE TEMPERATURE
 TMAX.DEGC    21                       :MAXIMUM RECORDED TEMPERATURE
 MRT1.                                 :MAX RECORDED TEMP 1
 MRT2.                                 :MAX RECORDED TEMP 2
 MUDS.        FLOWLINE                 :MUD SAMPLE SOURCE
  RMT.DEGC    9                        :MUD SAMPLE TEMPERATURE
  NMT.        NOBARITE                 :NUCLEAR MUD TYPE
  OS1.        AIT-TLD-HGNS-BHC         :OTHER SERVICES LINE 1
  OS2.                                 :OTHER SERVICES LINE 2
  OS3.                                 :OTHER SERVICES LINE 3
  OS4.                                 :OTHER SERVICES LINE 4
  OS5.                                 :OTHER SERVICES LINE 5
 PDAT.        GROUND LEVEL             :PERMANENT DATUM
   R1.        ALL TOOLS RUN AS PER TOOL SKETCH.  :REMARK LINE 1
  R10.                                 :REMARK LINE 10
  R11.                                 :REMARK LINE 11
  R12.        -                        :REMARK LINE 12
  R13.        -                        :REMARK LINE 13
  R14.        -                        :REMARK LINE 14
  R15.        -                        :REMARK LINE 15
  R16.        RIG: RIG #9        :REMARK LINE 16
  R17.        CREW: D. GILLS, K. SAWSHANK  :REMARK LINE 17
   R2.        AIT RUN IN COMPUTE STANDOFF MODE.  :REMARK LINE 2
   R3.        HGNS RUN WITHOUT BOWSPRING DUE TO HOLE SIZE.  :REMARK LINE 3
   R4.        SONIC RUN WITH STANDOFFS TO IMPROVE CENTRALIZATION.  :REMARK LINE 4
   R5.        -                        :REMARK LINE 5
   R6.        NO HI-RESOLUTION REQUESTED.  :REMARK LINE 6
   R7.        NO FMI LOG REQUESTED     :REMARK LINE 7
   R8.        -                        :REMARK LINE 8
   R9.                                 :REMARK LINE 9
RANGE.        07W4M                    :RANGE
  RMB.        4.684                    :OF MUD - BHT
  RMC.OHMM    10.320                   :RESISTIVITY OF MUD CAKE SAMPLE
 RMFB.        3.517                    :OF MUD FILTRATE - BHT
  RMF.OHMM    4.820                    :RESISTIVITY OF MUD FILTRATE SAMPLE
   RM.OHMM    6.420                    :RESISTIVITY OF MUD SAMPLE
  RUN.        ONE                      :RUN NUMBER
SECTION.      12-01                    :SECTION
 FACT.        11505834                 :FACTS NUMBER
 TIMC.        21:05                    :TIME CIRCULATION STOPPED
  TDD.M       424                      :TOTAL DEPTH - DRILLER
  TDL.M       423.2                    :TOTAL DEPTH - LOGGER
 TIML.        0:15                     :TIME LOGGER AT BOTTOM
  TLI.M       189                      :TOP LOG INTERVAL
TOWNSHIP.     076                      :TOWNSHIP
  WIT.        BILL HICKOCK           :WITNESS'S NAME
   WN.        BOB FIELD 00-0-00-0   :WELL NAME
~ASCII   DEPT        AHF30        AHF60        AHF90      AHFCO90         AHMF         GDEV           GR         HTEM         RXOZ           SP         TENS           DT         HCAL          TT1          TT2          TT3          TT4     DPHI_DOL     DPHI_LIM     DPHI_SAN         HDRA     NPOR_DOL     NPOR_LIM     NPOR_SAN         PEFZ         RHOZ
# ...
    370.50000     12.22639     12.66461     12.22717     81.79333      6.32017      3.36494    103.04047     11.88365     15.92741     68.89419   1259.01575    374.00511    153.70514    715.90674    487.54959    713.64828    487.53655      0.29679      0.23922      0.21155     51.06941      0.25229      0.28725      0.33663      2.36475   2301.92992
    371.00000     11.84639     12.26758     11.93337     83.80171      6.24050      3.79002     97.41890     11.88365     15.72147     36.84646   1441.91339    365.93352    154.85050    708.60752    483.84729    708.49272    484.37913      0.28827      0.22999      0.20199     60.58386      0.25728      0.29369      0.34226      2.32176   2317.54273
    371.50000     12.83919     13.22313     13.00718     76.88062      6.33793      2.48237     94.93374     11.88365     18.72016     63.12730    935.13386    371.55499    154.15577    708.18360    485.14683    708.61497    485.43923      0.30206      0.24492      0.21746     24.43604      0.25782      0.29379      0.34274      2.19222   2291.89360
    372.00000     12.28200     12.50822     12.35274     80.95542      6.30248      2.44342     99.27967     11.88365     14.83215     52.97687    989.51181    362.07213    154.16516    704.68615    478.07498    704.42027    478.40885      0.29488      0.23715      0.20941     24.28111      0.26999      0.30636      0.35565      2.24860   2304.50642
    372.50000     12.37338     12.54822     12.30577     81.26273      6.31635      3.18124     79.88818     11.88365     28.78762     29.02559    977.44882    365.32624    151.78056    692.13503    474.74202    691.14276    467.59972      0.31854      0.26275      0.23594     24.97476      0.26952      0.30618      0.35523      2.27061   2259.42522
    373.00000     12.48478     12.78346     12.45574     80.28425      6.30827      2.46102    103.65240     11.88365     16.74462     69.82316   1053.26772    340.82456    154.73784    688.44595    465.74436    686.57770    465.01162      0.23730      0.17485      0.14485     56.16262      0.26531      0.30130      0.35056      2.61176   2413.28533
    373.50000     13.05383     13.28823     13.22727     75.60721      6.25674      2.90667     91.14844     11.88365     14.31725     68.83071   1151.24409    363.21204    154.11352    695.65232    470.22804    695.02887    478.38257      0.27934      0.22034      0.19199     44.37463      0.27071      0.30912      0.35694      2.29944   2334.30862
    374.00000     14.44177     15.05993     15.01534     66.60049      6.32817      2.61500     79.79930     11.88365     26.30138     67.10072   1183.18110    378.22871    154.40925    722.10945    489.35666    720.95941    489.71659      0.33563      0.28124      0.25510      7.27707      0.27707      0.31513      0.36353      2.17734   2228.04955
    374.50000     14.71904     15.67788     15.67074     63.81338      6.34587      3.30755     87.62378     11.88365     18.42115     60.68455    988.63255    381.92706    153.83892    717.63989    494.93102    717.49823    495.30051      0.32482      0.26954      0.24298     24.33666      0.26065      0.29734      0.34592      2.10965   2251.02078
    375.00000     13.09683     13.56805     13.82917     72.31619      6.27272      3.63781     98.98895     11.88365     16.08212     68.20719   1156.65354    371.41672    153.43758    719.29227    487.23233    718.15335    487.23413      0.30678      0.25002      0.22275     24.43018      0.27869      0.31806      0.36554      2.19597   2281.87954
    375.50000     11.69520     12.12846     12.28083     81.42865      6.23484      3.89506    103.10692     11.88365     13.57238     71.49885   1166.87139    368.00098    154.16516    717.99421    486.55430    718.33425    487.27154      0.29354      0.23571      0.20791     12.05481      0.26251      0.29994      0.34806      2.25225   2307.21213
    376.00000     11.99166     12.59826     12.99284     76.97281      6.21837      3.52164    132.30126     11.88365     11.03053     74.08645   1088.14436    381.10344    157.60828    719.32479    496.65238    720.72973    495.56954      0.28607      0.22762      0.19953     19.62915      0.29803      0.34110      0.38654      2.45987   2320.76891
    376.50000     15.63899     16.39012     16.78687     59.58577      6.30305      3.08710     95.25833     11.88365     13.45996     66.78051   1100.66929    383.93895    154.71202    717.62621    501.08408    716.26626    493.53992      0.31011      0.25363      0.22649     12.29346      0.25203      0.28840      0.33659      2.32162   2276.11474
    377.00000     23.90203     25.43000     25.19625     39.68846      6.36416      3.33921     94.82779     11.88365     23.90105     65.00804   1061.13386    365.36318    154.16516    717.10052    485.18283    714.81225    486.25527      0.31567      0.25964      0.23272     -4.90491      0.24744      0.28368      0.33179      2.30155   2269.17006
    377.50000     20.97968     22.13528     21.42868     46.66861      6.30236      3.45287     95.61126     11.88365     38.76006     65.33514    999.03412    375.29611    153.09492    709.07051    472.10918    708.57713    479.74129      0.34199      0.28812      0.26223      7.32977      0.28657      0.32698      0.37403      2.03079   2217.08029
    378.00000     25.69002     25.33260     25.87357     38.69833      6.37122      2.59744     75.50911     11.88365     35.30397     59.85482   1036.50394    376.40411    153.23808    722.03841    487.78387    721.88830    488.56860      0.35966      0.30723      0.28204      9.06951      0.25649      0.29319      0.34152      1.87964   2185.73850
    378.50000     42.84147     41.25527     40.74462     24.54773      6.41919      2.66335     65.71230     11.88365     73.54184     58.08924   1060.88189    388.14113    152.37671    728.46433    499.08212    727.49027    501.61543      0.40247      0.35355      0.33005     10.03889      0.26179      0.29940      0.34735      1.90647   2105.16511
    379.00000     30.75268     29.86731     29.62031     33.77751      6.44772      3.67086     70.94977     11.88365     89.78161     60.59744    959.33071    386.89847    152.97287    721.21147    492.24496    721.09838    490.22468      0.38248      0.33192      0.30763      4.43472      0.27085      0.30895      0.35700      1.93886   2141.27456
    379.50000     24.42863     23.75291     23.48029     42.59058      6.34553      3.52081    105.61462     11.88365     20.52190     53.52904   1341.32283    362.73185    153.53616    718.25682    483.69031    717.71873    483.10373      0.33022      0.27538      0.24903      5.55143      0.27213      0.31026      0.35834      2.03042   2240.86705
    380.00000     24.34039     24.03227     23.33943     42.84979      6.36614      2.20081     89.63045     11.88365     49.52519     60.06512    976.49344    375.17133    153.56902    703.95140    484.95891    703.16671    484.62312      0.34720      0.29376      0.26807     34.81765      0.26353      0.30136      0.34920      1.95751   2209.92465
    380.50000     21.93847     21.74868     21.23012     47.12000      6.37537      2.85970     84.26603     11.88365     26.54212     59.23376   1089.09974    363.40625    151.78056    713.07918    478.34013    712.36976    479.21249      0.33807      0.28387      0.25783     -1.47900      0.24785      0.28221      0.33170      2.04857   2221.13610
    381.00000     35.44637     34.59547     33.24228     30.08217      6.40046      2.96005     54.42682     11.88365     54.15620     52.43750    975.00000    379.26645    154.76131    716.23401    490.22333    715.75629    490.11200      0.36360      0.31150      0.28646      7.29990      0.27367      0.31240      0.36013      1.93058   2177.33984
    381.50000     38.90812     38.03734     34.74809     28.79061      6.41870      2.80614     67.85716     11.88365     35.19131     57.29495   1151.19685    384.05261    154.35292    723.57862    495.62418    721.69975    495.53296      0.35657      0.30389      0.27858     38.37451      0.29189      0.33437      0.37944      1.89142   2190.94804
