~VERSION 
 VERS.        2.00                     :CWLS Log ASCII Standard Version
 WRAP.        NO                       :One Line per depth step
 PROG.        2.0.76                   :LAS Program name and version
SOURCE.       AIT_  :DLIS File Name
~WELL 
 STRT.M       347.50000                          :START DEPTH
 STOP.M       424.50000                          :STOP DEPTH
 STEP.M       0.50000                            :STEP
 NULL.        -999.25000                         :NULL VALUE
 COMP.        KOREA NATIONAL OIL CORPORATION     :COMPANY
 WELL.        xxxx xxxx 00-0-00-0             :WELL
  FLD.        FIELD                            :FIELD
  LOC.        00-01-006-0W0M                     :LOCATION
 PROV.        ALBERTA                            :PROVINCE
  LIC.        0234567                            :LICENCE NUMBER
  UWI.        1AA333107668W200                   :UNIQUE WELL ID
 SRVC.        SCHLUMBERGER                       :SERVICE COMPANY
 DATE.        30-JAN-2007                        :LOGGING DATE
~CURVE 
#MNEM.UNIT    VALUE                    :DESCRIPTION
#----.----    ---------------          :-------------------
 DEPT.M       00 001 00 00             :Depth Index
AHF30.OHMM                             :ARRAY INDUCTION FOUR FOOT RESISTIVITY A30
AHF60.OHMM                             :ARRAY INDUCTION FOUR FOOT RESISTIVITY A60
AHF90.OHMM                             :ARRAY INDUCTION FOUR FOOT RESISTIVITY A90
AHFCO90.MM/M                           :ARRAY INDUCTION FOUR FOOT CONDUCTIVITY A90
 AHMF.OHMM                             :ARRAY INDUCTION MUD RESISTIVITY FULLY CALIBRATED
 GDEV.DEG                              :HGNS DEVIATION
   GR.GAPI                             :GAMMA-RAY
 HTEM.DEGC                             :HTC TEMPERATURE
 RXOZ.OHMM                             :MCFL STANDARD RESOLUTION INVADED ZONE RESISTIVITY
   SP.MV                               :SPONTANEOUS POTENTIAL
 TENS.LBF                              :CABLE TENSION
   DT.US/M                             :DELTA-T
 HCAL.MM                               :HRCC CAL. CALIPER
  TT1.US                               :TRANSIT TIME 1
  TT2.US                               :TRANSIT TIME 2
  TT3.US                               :TRANSIT TIME 3
  TT4.US                               :TRANSIT TIME 4
DPHI_DOL.V/V                           :DENSITY POROSITY (MATRIX DOLOMITE)
DPHI_LIM.V/V                           :DENSITY POROSITY (MATRIX LIMESTONE)
DPHI_SAN.V/V                           :DENSITY POROSITY (MATRIX SANDSTONE)
 HDRA.K/M3                             :HRDD DENSITY CORRECTION
NPOR_DOL.V/V                           :ENHANCED THERMAL NEUTRON POROSITY (MATRIX DOLOMITE)
NPOR_LIM.V/V                           :ENHANCED THERMAL NEUTRON POROSITY (MATRIX LIMESTONE)
NPOR_SAN.V/V                           :ENHANCED THERMAL NEUTRON POROSITY (MATRIX SANDSTONE)
 PEFZ.                                 :HRDD STANDARD RESOLUTION FORMATION PHOTOELECTRIC FACTOR
 RHOZ.K/M3                             :HRDD STANDARD RESOLUTION FORMATION DENSITY
~PARAMETER 
#MNEM.UNIT    VALUE                    :DESCRIPTION
#----.----    ---------------          :-------------------
  APD.M       3.7                      :ABOVE PERMANENT DATUM
  LIC.        0369058                  :LICENSE NUMBER
  BHT.DEGC    21                       :BOTTOM HOLE TEMPERATURE (USED IN CALCULATIONS)
  BLI.M       420.8                    :BOTTOM LOG INTERVAL
   BS.MM      251.000                  :BIT SIZE
 CSGD.M       189                      :CASING BOTTOM OF DRILLER
 CSGL.M       189                      :CASING BOTTOM OF LOGGER
   CN.        SAKOVIA NATIONAL OIL CORPORATION  :COMPANY NAME
 PROV.        ALBERTA                  :PROVINCE
 CSGS.MM      177.800                  :CURRENT CASING SIZE
 DATE.        30-JAN-2007              :LOGGING DATE
  DCS.        30-JAN-2007              :DATE CIRCULATION STOPPED
 MUDD.K/M3    1130                     :DRILLING FLUID DENSITY
   FL.CM3     8                        :DRILLING FLUID LOSS
   PH.        9.5                      :DRILLING FLUID PH
  MUD.        GEL CHEM                 :DRILLING FLUID TYPE
 MUDV.S       80                       :DRILLING FLUID VISCOSITY
 DLAB.        31-JAN-2007              :DATE LOGGER AT BOTTOM
 DREF.        KELLY BUSHING            :DRILLING MEASURED FROM
  EDF.M       602.3                    :ELEVATION OF DERRICK FLOOR
   GL.M       598.6                    :ELEVATION OF GROUND LEVEL
 EREF.M       602.3                    :ELEVATION OF KELLY BUSHING
  ENG.        BRIAN GREEN             :ENGINEER'S NAME
   FL.        12-01-076-7W4M           :FIELD LOCATION
  FL1.        1AA333107668W200         :FIELD LOCATION LINE 1
  FL2.                                 :FIELD LOCATION LINE 2
   FN.        FIELD                  :FIELD NAME
 HID1.        ARRAY INDUCTION - SP LOG :HEADER IDENTIFIER LINE 1
 HID2.                                 :HEADER IDENTIFIER LINE 2
 HIDE.        PLATFORM EXPRESS         :HEADER IDENTIFIER
 EREF.        KELLY BUSHING            :LOG MEASURED FROM
 BASE.        NISKU - WP               :LOGGING UNIT LOCATION
 UNIT.        3030                     :LOGGING UNIT NUMBER
 MATR.        SAND                     :ROCK MATRIX TYPE
 RMCT.DEGC    9                        :MUD CAKE SAMPLE TEMPERATURE
 MDEN.K/M3    2650                     :MATRIX DENSITY
 RMFT.DEGC    9                        :MUD FILTRATE SAMPLE TEMPERATURE
 TMAX.DEGC    21                       :MAXIMUM RECORDED TEMPERATURE
 MRT1.                                 :MAX RECORDED TEMP 1
 MRT2.                                 :MAX RECORDED TEMP 2
 MUDS.        FLOWLINE                 :MUD SAMPLE SOURCE
  RMT.DEGC    9                        :MUD SAMPLE TEMPERATURE
  NMT.        NOBARITE                 :NUCLEAR MUD TYPE
  OS1.        AIT-TLD-HGNS-BHC         :OTHER SERVICES LINE 1
  OS2.                                 :OTHER SERVICES LINE 2
  OS3.                                 :OTHER SERVICES LINE 3
  OS4.                                 :OTHER SERVICES LINE 4
  OS5.                                 :OTHER SERVICES LINE 5
 PDAT.        GROUND LEVEL             :PERMANENT DATUM
   R1.        ALL TOOLS RUN AS PER TOOL SKETCH.  :REMARK LINE 1
  R10.                                 :REMARK LINE 10
  R11.                                 :REMARK LINE 11
  R12.        -                        :REMARK LINE 12
  R13.        -                        :REMARK LINE 13
  R14.        -                        :REMARK LINE 14
  R15.        -                        :REMARK LINE 15
  R16.        RIG: RIG #9        :REMARK LINE 16
  R17.        CREW: D. GILLS, K. SAWSHANK  :REMARK LINE 17
   R2.        AIT RUN IN COMPUTE STANDOFF MODE.  :REMARK LINE 2
   R3.        HGNS RUN WITHOUT BOWSPRING DUE TO HOLE SIZE.  :REMARK LINE 3
   R4.        SONIC RUN WITH STANDOFFS TO IMPROVE CENTRALIZATION.  :REMARK LINE 4
   R5.        -                        :REMARK LINE 5
   R6.        NO HI-RESOLUTION REQUESTED.  :REMARK LINE 6
   R7.        NO FMI LOG REQUESTED     :REMARK LINE 7
   R8.        -                        :REMARK LINE 8
   R9.                                 :REMARK LINE 9
RANGE.        07W4M                    :RANGE
  RMB.        4.684                    :OF MUD - BHT
  RMC.OHMM    10.320                   :RESISTIVITY OF MUD CAKE SAMPLE
 RMFB.        3.517                    :OF MUD FILTRATE - BHT
  RMF.OHMM    4.820                    :RESISTIVITY OF MUD FILTRATE SAMPLE
   RM.OHMM    6.420                    :RESISTIVITY OF MUD SAMPLE
  RUN.        ONE                      :RUN NUMBER
SECTION.      12-01                    :SECTION
 FACT.        11505834                 :FACTS NUMBER
 TIMC.        21:05                    :TIME CIRCULATION STOPPED
  TDD.M       424                      :TOTAL DEPTH - DRILLER
  TDL.M       423.2                    :TOTAL DEPTH - LOGGER
 TIML.        0:15                     :TIME LOGGER AT BOTTOM
  TLI.M       189                      :TOP LOG INTERVAL
TOWNSHIP.     076                      :TOWNSHIP
  WIT.        BILL HICKOCK           :WITNESS'S NAME
   WN.        BOB FIELD 00-0-00-0   :WELL NAME
~ASCII   DEPT        AHF30        AHF60        AHF90      AHFCO90         AHMF         GDEV           GR         HTEM         RXOZ           SP         TENS           DT         HCAL          TT1          TT2          TT3          TT4     DPHI_DOL     DPHI_LIM     DPHI_SAN         HDRA     NPOR_DOL     NPOR_LIM     NPOR_SAN         PEFZ         RHOZ
# ...
    416.50000     71.06610     69.08415     68.84651     14.52649      6.35802   -999.25000     18.00814     11.68403     85.89268     61.16535    849.66142    186.53354    153.04484    413.39377    294.16702    413.54141    305.34647      0.14789      0.07812      0.04460     16.65537      0.12889      0.14573      0.19570      4.74153   2576.05510
    417.00000     86.62450     84.97177     82.69874     12.09219      6.37461   -999.25000     18.00814     11.68403    138.88211     63.32776    873.77165    186.53354    152.97287    413.39377    294.16702    413.54141    305.34647      0.11632      0.04397      0.00921     24.89582      0.12889      0.14574      0.19570      4.67971   2634.80028
    417.50000     74.53507     73.09636     72.48728     13.79558      6.33775   -999.25000     18.00814     11.68403     95.38155     66.68734   1021.33333    186.53354    152.97052    413.39377    294.16702    413.54141    305.34647      0.15859      0.08971      0.05661     14.54364      0.12890      0.14574      0.19571      4.28500   2553.67741
    418.00000     57.28123     55.77585     56.79950     17.60864      6.31242   -999.25000     18.00814     11.68403     76.94325     70.84154   1004.16010    186.53354    142.44869    413.39377    294.16702    413.54141    305.34647      0.16864      0.10057      0.06787     95.90139      0.12928      0.14616      0.19616      4.25392   2539.17305
    418.50000     52.69000     50.57819     53.17332     18.80654      6.29908   -999.25000     18.00814     11.68403     76.49925     73.12500   1080.96063    186.53354    141.75866    413.39377    294.16702    413.54141    305.34647      0.16800      0.09988      0.06715    100.23926      0.12932      0.14621      0.19621      4.26348   2539.69710
    419.00000     54.40447     51.86235     58.14459     17.19967      6.30005   -999.25000     18.00814     11.68403     30.59097     74.10548   1016.04199    186.53354    140.56401    413.39377    294.16702    413.54141    305.34647      0.37785      0.32692      0.30244     67.91617      0.12989      0.14685      0.19688      3.44669   2142.48439
    419.50000     55.17350     54.15834     68.34663     14.63362      6.28643   -999.25000     18.00814     11.68403     23.31702     74.81250   1074.58530    186.53354     96.93469    413.39377    294.16702    413.54141    305.34647      0.32811      0.27310      0.24667    332.86538      0.13111      0.14823      0.19834      2.60529   2248.28999
    420.00000     61.34557     59.29149     74.01948     13.51041      6.28883   -999.25000     18.00814     11.68403     23.31706     73.43406   1015.70079    186.53354     96.93469    413.39377    294.16702    413.54141    305.34647      0.31942      0.26370      0.23692    343.54250      0.13111      0.14823      0.19834      2.57680   2259.06955
    420.50000     68.16608     57.62743     53.53714     18.69526      6.29799   -999.25000     18.00814     11.68403     23.31706     69.06906   1166.93176    186.53354     96.93469    413.39377    294.16702    413.54141    305.34647      0.31943      0.26372      0.23694    343.52036      0.13111      0.14823      0.19834      2.57904   2259.04744
    421.00000     74.14752     53.77159     39.76966     25.14603      6.31661   -999.25000     18.00814     11.68403     23.31706     69.18094   1016.41732    186.53354     96.93469    413.39377    294.16702    413.54141    305.34647      0.31944      0.26372      0.23695    343.51108      0.13111      0.14823      0.19834      2.58128   2259.03804
    421.50000     82.03865     51.08755     35.77838     27.95209      6.31362   -999.25000     18.00814     11.68403     23.31706     73.85433    966.02362    186.53354     96.93469    413.39377    294.16702    413.54141    305.34647      0.31944      0.26373      0.23695    343.50223      0.13111      0.14823      0.19834      2.58354   2259.02912
    422.00000     75.14363     42.92090     32.22086     31.03589      6.28445   -999.25000     18.00814     11.68403     23.31706     82.68865   1011.50131    186.53354     96.93469    413.39377    294.16702    413.54141    305.34647      0.31944      0.26372      0.23695    343.50528      0.13111      0.14823      0.19834      2.58582   2259.03183
    422.50000     72.68958     41.13706     32.33586     30.92607      6.18027   -999.25000     18.00814     11.68403     23.31706     81.45079   1051.56693    186.53354     96.93469    413.39377    294.16702    413.54141    305.34647      0.31874      0.26297      0.23617    562.02064      0.13111      0.14823      0.19834      2.58782   2260.33144
    423.00000     75.06029     42.73301     34.00119     29.41087      6.20607   -999.25000     18.00814     11.68403     23.31706     68.77067   1087.72441    186.53354     96.93469    413.39377    294.16702    413.54141    305.34647    541.67572    585.94153    607.21210   -999.25000      0.13111      0.14823      0.19834   -999.25000   -999.25000
    423.50000     75.93531     42.98769     34.40166     29.06836     14.56300   -999.25000     18.00814     11.68403     23.31706     72.63648    397.30971    186.53354     96.93469    413.39377    294.16702    413.54141    305.34647    541.67572    585.94153    607.21210   -999.25000      0.13111      0.14823      0.19834   -999.25000   -999.25000
    424.00000     76.14415     42.95626     34.49622     28.98869     17.44675   -999.25000     18.00814     11.68403     23.31317     95.68209    -50.89239    186.53354     96.93469    413.39377    294.16702    413.54141    305.34647    541.67572    585.94153    607.21210   -999.25000      0.13111      0.14823      0.19834   -999.25000   -999.25000
    424.50000     76.38569     43.22299     34.68900     28.82758     17.50457   -999.25000     18.00814     11.68403     23.17065     93.25000    -92.00000    186.53354     96.93469    413.39377    294.16702    413.54141    305.34647    541.67572    585.94153    607.21210   -999.25000      0.13111      0.14823      0.19834   -999.25000   -999.25000
