~VERSION 
 VERS.        2.00                     :CWLS Log ASCII Standard Version
 WRAP.        NO                       :One Line per depth step
 PROG.        2.0.76                   :LAS Program name and version
SOURCE.       AIT_  :DLIS File Name
~WELL 
 STRT.M       347.50000                          :START DEPTH
 STOP.M       424.50000                          :STOP DEPTH
 STEP.M       0.50000                            :STEP
 NULL.        -999.25000                         :NULL VALUE
 COMP.        KOREA NATIONAL OIL CORPORATION     :COMPANY
 WELL.        xxxx xxxx 00-0-00-0             :WELL
  FLD.        FIELD                            :FIELD
  LOC.        00-01-006-0W0M                     :LOCATION
 PROV.        ALBERTA                            :PROVINCE
  LIC.        0234567                            :LICENCE NUMBER
  UWI.        1AA333107668W200                   :UNIQUE WELL ID
 SRVC.        SCHLUMBERGER                       :SERVICE COMPANY
 DATE.        30-JAN-2007                        :LOGGING DATE
~CURVE 
#MNEM.UNIT    VALUE                    :DESCRIPTION
#----.----    ---------------          :-------------------
 DEPT.M       00 001 00 00             :Depth Index
AHF30.OHMM                             :ARRAY INDUCTION FOUR FOOT RESISTIVITY A30
AHF60.OHMM                             :ARRAY INDUCTION FOUR FOOT RESISTIVITY A60
AHF90.OHMM                             :ARRAY INDUCTION FOUR FOOT RESISTIVITY A90
AHFCO90.MM/M                           :ARRAY INDUCTION FOUR FOOT CONDUCTIVITY A90
 AHMF.OHMM                             :ARRAY INDUCTION MUD RESISTIVITY FULLY CALIBRATED
 GDEV.DEG                              :HGNS DEVIATION
   GR.GAPI                             :GAMMA-RAY
 HTEM.DEGC                             :HTC TEMPERATURE
 RXOZ.OHMM                             :MCFL STANDARD RESOLUTION INVADED ZONE RESISTIVITY
   SP.MV                               :SPONTANEOUS POTENTIAL
 TENS.LBF                              :CABLE TENSION
   DT.US/M                             :DELTA-T
 HCAL.MM                               :HRCC CAL. CALIPER
  TT1.US                               :TRANSIT TIME 1
  TT2.US                               :TRANSIT TIME 2
  TT3.US                               :TRANSIT TIME 3
  TT4.US                               :TRANSIT TIME 4
DPHI_DOL.V/V                           :DENSITY POROSITY (MATRIX DOLOMITE)
DPHI_LIM.V/V                           :DENSITY POROSITY (MATRIX LIMESTONE)
DPHI_SAN.V/V                           :DENSITY POROSITY (MATRIX SANDSTONE)
 HDRA.K/M3                             :HRDD DENSITY CORRECTION
NPOR_DOL.V/V                           :ENHANCED THERMAL NEUTRON POROSITY (MATRIX DOLOMITE)
NPOR_LIM.V/V                           :ENHANCED THERMAL NEUTRON POROSITY (MATRIX LIMESTONE)
NPOR_SAN.V/V                           :ENHANCED THERMAL NEUTRON POROSITY (MATRIX SANDSTONE)
 PEFZ.                                 :HRDD STANDARD RESOLUTION FORMATION PHOTOELECTRIC FACTOR
 RHOZ.K/M3                             :HRDD STANDARD RESOLUTION FORMATION DENSITY
~PARAMETER 
#MNEM.UNIT    VALUE                    :DESCRIPTION
#----.----    ---------------          :-------------------
  APD.M       3.7                      :ABOVE PERMANENT DATUM
  LIC.        0369058                  :LICENSE NUMBER
  BHT.DEGC    21                       :BOTTOM HOLE TEMPERATURE (USED IN CALCULATIONS)
  BLI.M       420.8                    :BOTTOM LOG INTERVAL
   BS.MM      251.000                  :BIT SIZE
 CSGD.M       189                      :CASING BOTTOM OF DRILLER
 CSGL.M       189                      :CASING BOTTOM OF LOGGER
   CN.        SAKOVIA NATIONAL OIL CORPORATION  :COMPANY NAME
 PROV.        ALBERTA                  :PROVINCE
 CSGS.MM      177.800                  :CURRENT CASING SIZE
 DATE.        30-JAN-2007              :LOGGING DATE
  DCS.        30-JAN-2007              :DATE CIRCULATION STOPPED
 MUDD.K/M3    1130                     :DRILLING FLUID DENSITY
   FL.CM3     8                        :DRILLING FLUID LOSS
   PH.        9.5                      :DRILLING FLUID PH
  MUD.        GEL CHEM                 :DRILLING FLUID TYPE
 MUDV.S       80                       :DRILLING FLUID VISCOSITY
 DLAB.        31-JAN-2007              :DATE LOGGER AT BOTTOM
 DREF.        KELLY BUSHING            :DRILLING MEASURED FROM
  EDF.M       602.3                    :ELEVATION OF DERRICK FLOOR
   GL.M       598.6                    :ELEVATION OF GROUND LEVEL
 EREF.M       602.3                    :ELEVATION OF KELLY BUSHING
  ENG.        BRIAN GREEN             :ENGINEER'S NAME
   FL.        12-01-076-7W4M           :FIELD LOCATION
  FL1.        1AA333107668W200         :FIELD LOCATION LINE 1
  FL2.                                 :FIELD LOCATION LINE 2
   FN.        FIELD                  :FIELD NAME
 HID1.        ARRAY INDUCTION - SP LOG :HEADER IDENTIFIER LINE 1
 HID2.                                 :HEADER IDENTIFIER LINE 2
 HIDE.        PLATFORM EXPRESS         :HEADER IDENTIFIER
 EREF.        KELLY BUSHING            :LOG MEASURED FROM
 BASE.        NISKU - WP               :LOGGING UNIT LOCATION
 UNIT.        3030                     :LOGGING UNIT NUMBER
 MATR.        SAND                     :ROCK MATRIX TYPE
 RMCT.DEGC    9                        :MUD CAKE SAMPLE TEMPERATURE
 MDEN.K/M3    2650                     :MATRIX DENSITY
 RMFT.DEGC    9                        :MUD FILTRATE SAMPLE TEMPERATURE
 TMAX.DEGC    21                       :MAXIMUM RECORDED TEMPERATURE
 MRT1.                                 :MAX RECORDED TEMP 1
 MRT2.                                 :MAX RECORDED TEMP 2
 MUDS.        FLOWLINE                 :MUD SAMPLE SOURCE
  RMT.DEGC    9                        :MUD SAMPLE TEMPERATURE
  NMT.        NOBARITE                 :NUCLEAR MUD TYPE
  OS1.        AIT-TLD-HGNS-BHC         :OTHER SERVICES LINE 1
  OS2.                                 :OTHER SERVICES LINE 2
  OS3.                                 :OTHER SERVICES LINE 3
  OS4.                                 :OTHER SERVICES LINE 4
  OS5.                                 :OTHER SERVICES LINE 5
 PDAT.        GROUND LEVEL             :PERMANENT DATUM
   R1.        ALL TOOLS RUN AS PER TOOL SKETCH.  :REMARK LINE 1
  R10.                                 :REMARK LINE 10
  R11.                                 :REMARK LINE 11
  R12.        -                        :REMARK LINE 12
  R13.        -                        :REMARK LINE 13
  R14.        -                        :REMARK LINE 14
  R15.        -                        :REMARK LINE 15
  R16.        RIG: RIG #9        :REMARK LINE 16
  R17.        CREW: D. GILLS, K. SAWSHANK  :REMARK LINE 17
   R2.        AIT RUN IN COMPUTE STANDOFF MODE.  :REMARK LINE 2
   R3.        HGNS RUN WITHOUT BOWSPRING DUE TO HOLE SIZE.  :REMARK LINE 3
   R4.        SONIC RUN WITH STANDOFFS TO IMPROVE CENTRALIZATION.  :REMARK LINE 4
   R5.        -                        :REMARK LINE 5
   R6.        NO HI-RESOLUTION REQUESTED.  :REMARK LINE 6
   R7.        NO FMI LOG REQUESTED     :REMARK LINE 7
   R8.        -                        :REMARK LINE 8
   R9.                                 :REMARK LINE 9
RANGE.        07W4M                    :RANGE
  RMB.        4.684                    :OF MUD - BHT
  RMC.OHMM    10.320                   :RESISTIVITY OF MUD CAKE SAMPLE
 RMFB.        3.517                    :OF MUD FILTRATE - BHT
  RMF.OHMM    4.820                    :RESISTIVITY OF MUD FILTRATE SAMPLE
   RM.OHMM    6.420                    :RESISTIVITY OF MUD SAMPLE
  RUN.        ONE                      :RUN NUMBER
SECTION.      12-01                    :SECTION
 FACT.        11505834                 :FACTS NUMBER
 TIMC.        21:05                    :TIME CIRCULATION STOPPED
  TDD.M       424                      :TOTAL DEPTH - DRILLER
  TDL.M       423.2                    :TOTAL DEPTH - LOGGER
 TIML.        0:15                     :TIME LOGGER AT BOTTOM
  TLI.M       189                      :TOP LOG INTERVAL
TOWNSHIP.     076                      :TOWNSHIP
  WIT.        BILL HICKOCK           :WITNESS'S NAME
   WN.        BOB FIELD 00-0-00-0   :WELL NAME
~ASCII   DEPT        AHF30        AHF60        AHF90      AHFCO90         AHMF         GDEV           GR         HTEM         RXOZ           SP         TENS           DT         HCAL          TT1          TT2          TT3          TT4     DPHI_DOL     DPHI_LIM     DPHI_SAN         HDRA     NPOR_DOL     NPOR_LIM     NPOR_SAN         PEFZ         RHOZ
# ...
    405.00000     57.76011     55.43988     56.23619     17.78307      6.39290      2.64288     46.40592     11.88365    202.31686     27.11024    971.23622    396.76385    155.69075    750.18798    510.27088    749.96825    508.43966      0.41485      0.36694      0.34392      8.83323      0.27161      0.31027      0.35793      1.74465   2079.17613
    405.50000     40.34452     39.81979     38.38089     26.06492      6.31606      2.84995     42.94035     11.88365     82.67866     31.89649    989.94226    390.54620    158.08004    734.18221    506.05472    733.33568    503.67365      0.39190      0.34212      0.31819     19.13856      0.26727      0.30464      0.35306      1.87814   2126.24376
    406.00000     18.07103     18.34264     18.50999     54.09041      6.35220      2.77204     65.71056     11.88365    208.61263     36.97310    906.82415    373.42734    154.16516    726.71616    488.25483    725.02495    489.16605      0.35707      0.30443      0.27914      6.52753      0.20625      0.23556      0.28576      1.93928   2189.34777
    406.50000      9.89015     10.01762     10.23791     97.71431      6.36505      2.71746    136.82688     11.88365     11.48561     74.59252    887.05512    372.45566    151.10930    688.98216    479.26861    688.42189    482.92364      0.26837      0.20847      0.17969      3.41913      0.31935      0.36275      0.40854      2.61373   2354.75783
    407.00000     10.41458     10.59014     10.90220     91.76250      6.20948      3.05003     54.81992     11.88365     20.71573     22.73114    924.95801    321.50671    149.70107    604.38772    447.14051    605.83663    438.72468      0.21117      0.14658      0.11555     26.19998      0.35980      0.41298      0.45183      3.94277   2467.33943
    407.50000     20.84341     21.69647     22.94429     43.84050      6.34686      2.56289     18.20495     11.88365    121.41423     18.28117    889.19160    227.18670    146.82828    528.22799    362.65626    504.46478    356.88662      0.20336      0.13813      0.10679      1.98130      0.16484      0.18670      0.23784      3.93499   2470.86290
    408.00000     70.51371     74.34340     78.96419     12.73157      6.41788      2.78897     18.96468     11.88365    378.92354     15.79035    885.03937    190.56588    147.60280    452.34513    303.18178    437.24185    301.25909      0.12313      0.05134      0.01684     14.13126      0.08980      0.10211      0.14869      4.06964   2622.15718
    408.50000    131.29897    142.43290    144.54984      6.91844      6.41918      2.63346     17.78228     11.88365    879.53155     21.85581    855.01575    182.77436    152.37671    415.28489    295.76518    415.33137    297.96998      0.11358      0.04101      0.00614     -5.66327      0.09570      0.10883      0.15586      3.91833   2641.55147
    409.00000    120.46296    132.72095    124.46781      8.03569      6.40253      3.08531     19.41228     11.88365    377.93788     26.52822    871.18110    192.40522    153.56902    412.83553    298.78892    413.46933    303.00186      0.10713      0.03402     -0.00110      7.56682      0.11021      0.12489      0.17338      3.76293   2649.52552
    409.50000    120.30329    127.21799    120.19756      8.31965      6.37261      2.59028     17.81616     11.88365    512.03302     33.38091    779.17323    191.50572    153.58310    412.84591    294.26985    415.67305    303.21330      0.07432     -0.00147     -0.03789     68.55661      0.12432      0.14062      0.19022      3.87892   2712.58363
    410.00000    129.82545    137.29056    129.98389      7.69333      6.39455      2.35176     20.69787     11.88365    151.32294     34.68619    977.83202    187.72858    153.72861    413.36587    294.11536    411.99473    300.28757      0.09801      0.02417     -0.01132      6.53047      0.11071      0.12539      0.17401      3.78023   2665.29524
    410.50000    118.11457    127.76650    119.69694      8.35580      6.39172      2.61503     16.82636     11.88365    445.23480     27.79216    868.10499    186.57185    153.56902    413.32755    294.13904    413.91512    297.65681      0.11611      0.04374      0.00897     12.24116      0.08255      0.09365      0.13984      3.77031   2640.88093
    411.00000    101.36261    108.96610     98.83772     10.11764      6.35854      2.74432     20.58220     11.78384    103.92026     22.77461    853.70079    186.52284    152.97287    413.32778    294.14597    413.55312    305.34934      0.20118      0.13578      0.10435     19.60620      0.13750      0.15533      0.20565      4.34628   2474.32307
    411.50000    102.47134    110.58485     99.01869     10.10055      6.37163      2.30779     17.24732     11.68403    357.81654     23.56873    838.81365    186.52143    152.67479    413.39377    294.16702    413.50507    305.33934      0.13742      0.06680      0.03286     13.81208      0.09527      0.10839      0.15535      4.53070   2597.60734
    412.00000     94.65244     97.30350    109.06016      9.17153      6.38863      2.66326     25.33371     11.68403    200.58102     39.08448    951.24147    186.53354    152.51753    413.39377    294.16702    413.46154    305.31338      0.14545      0.07549      0.04187      0.88113      0.09566      0.10907      0.15580      4.55461   2579.49483
    412.50000    116.10842     73.57454     82.35040     12.16354      6.40747      2.72187     24.59468     11.68403    306.88063     50.03346    904.03937    186.53354    154.16516    413.39377    294.16702    413.54141    305.34647      0.12903      0.05773      0.02346     -0.55002      0.05831      0.06668      0.10967      4.40701   2611.20589
    413.00000     54.97939     52.66290     54.45241     18.36806      6.34219      2.73481     25.27839     11.68403     46.98454     55.53445    901.87139    186.53354    153.56902    413.39377    294.16702    413.54141    305.34647      0.17363      0.10598      0.07347      1.68765      0.13971      0.15784      0.20819      4.28469   2528.70717
    413.50000     39.09029     44.05566     40.28788     24.82465      6.31625   -999.25000     24.35079     11.68403     39.41972     55.85007    915.70866    186.53354    153.25451    413.39377    294.16702    413.54141    305.34647      0.16407      0.09563      0.06274     21.95986      0.13421      0.15169      0.20198      4.42611   2547.28435
    414.00000     41.58248     43.05126     42.89286     23.31448      6.28813   -999.25000     18.00814     11.68403     41.69864     59.19390    876.39370    186.53354    150.35356    413.39377    294.16702    413.54141    305.34647      0.15274      0.08337      0.05004     52.93067      0.12420      0.14046      0.19008      4.56651   2568.33209
    414.50000     51.84623     51.91012     52.21550     19.15737      6.31577   -999.25000     18.00814     11.68403     65.72268     56.21309    845.13123    186.53354    154.16516    413.39377    294.16702    413.54141    305.34647      0.13756      0.06695      0.03302     30.75307      0.11968      0.13540      0.18481      4.65753   2596.93221
    415.00000     74.90658     75.03441     74.59565     13.40948      6.36503   -999.25000     18.00814     11.68403    131.04009     48.99885    879.60367    186.53354    153.74269    413.39377    294.16702    413.54141    305.34647      0.13985      0.06943      0.03559      2.79202      0.12614      0.14265      0.19243      4.54959   2591.55793
    415.50000     79.39540     79.28730     79.47590     12.58338      6.37663   -999.25000     18.00814     11.68403    137.15732     53.33661    905.29134    186.53354    153.51581    413.39377    294.16702    413.54141    305.34647      0.14092      0.07058      0.03679     -0.51615      0.12319      0.13935      0.18895      4.59073   2587.44049
    416.00000     66.32263     64.96017     65.64191     15.23537      6.39213   -999.25000     18.00814     11.68403     76.09360     58.16093    869.35433    186.53354    153.57840    413.39377    294.16702    413.54141    305.34647      0.14246      0.07226      0.03852     10.60291      0.12941      0.14632      0.19632      4.42268   2587.32198
