~VERSION 
 VERS.        2.00                     :CWLS Log ASCII Standard Version
 WRAP.        NO                       :One Line per depth step
 PROG.        2.0.76                   :LAS Program name and version
SOURCE.       AIT_  :DLIS File Name
~WELL 
 STRT.M       347.50000                          :START DEPTH
 STOP.M       424.50000                          :STOP DEPTH
 STEP.M       0.50000                            :STEP
 NULL.        -999.25000                         :NULL VALUE
 COMP.        KOREA NATIONAL OIL CORPORATION     :COMPANY
 WELL.        xxxx xxxx 00-0-00-0             :WELL
  FLD.        FIELD                            :FIELD
  LOC.        00-01-006-0W0M                     :LOCATION
 PROV.        ALBERTA                            :PROVINCE
  LIC.        0234567                            :LICENCE NUMBER
  UWI.        1AA333107668W200                   :UNIQUE WELL ID
 SRVC.        SCHLUMBERGER                       :SERVICE COMPANY
 DATE.        30-JAN-2007                        :LOGGING DATE
~CURVE 
#MNEM.UNIT    VALUE                    :DESCRIPTION
#----.----    ---------------          :-------------------
 DEPT.M       00 001 00 00             :Depth Index
AHF30.OHMM                             :ARRAY INDUCTION FOUR FOOT RESISTIVITY A30
AHF60.OHMM                             :ARRAY INDUCTION FOUR FOOT RESISTIVITY A60
AHF90.OHMM                             :ARRAY INDUCTION FOUR FOOT RESISTIVITY A90
AHFCO90.MM/M                           :ARRAY INDUCTION FOUR FOOT CONDUCTIVITY A90
 AHMF.OHMM                             :ARRAY INDUCTION MUD RESISTIVITY FULLY CALIBRATED
 GDEV.DEG                              :HGNS DEVIATION
   GR.GAPI                             :GAMMA-RAY
 HTEM.DEGC                             :HTC TEMPERATURE
 RXOZ.OHMM                             :MCFL STANDARD RESOLUTION INVADED ZONE RESISTIVITY
   SP.MV                               :SPONTANEOUS POTENTIAL
 TENS.LBF                              :CABLE TENSION
   DT.US/M                             :DELTA-T
 HCAL.MM                               :HRCC CAL. CALIPER
  TT1.US                               :TRANSIT TIME 1
  TT2.US                               :TRANSIT TIME 2
  TT3.US                               :TRANSIT TIME 3
  TT4.US                               :TRANSIT TIME 4
DPHI_DOL.V/V                           :DENSITY POROSITY (MATRIX DOLOMITE)
DPHI_LIM.V/V                           :DENSITY POROSITY (MATRIX LIMESTONE)
DPHI_SAN.V/V                           :DENSITY POROSITY (MATRIX SANDSTONE)
 HDRA.K/M3                             :HRDD DENSITY CORRECTION
NPOR_DOL.V/V                           :ENHANCED THERMAL NEUTRON POROSITY (MATRIX DOLOMITE)
NPOR_LIM.V/V                           :ENHANCED THERMAL NEUTRON POROSITY (MATRIX LIMESTONE)
NPOR_SAN.V/V                           :ENHANCED THERMAL NEUTRON POROSITY (MATRIX SANDSTONE)
 PEFZ.                                 :HRDD STANDARD RESOLUTION FORMATION PHOTOELECTRIC FACTOR
 RHOZ.K/M3                             :HRDD STANDARD RESOLUTION FORMATION DENSITY
~PARAMETER 
#MNEM.UNIT    VALUE                    :DESCRIPTION
#----.----    ---------------          :-------------------
  APD.M       3.7                      :ABOVE PERMANENT DATUM
  LIC.        0369058                  :LICENSE NUMBER
  BHT.DEGC    21                       :BOTTOM HOLE TEMPERATURE (USED IN CALCULATIONS)
  BLI.M       420.8                    :BOTTOM LOG INTERVAL
   BS.MM      251.000                  :BIT SIZE
 CSGD.M       189                      :CASING BOTTOM OF DRILLER
 CSGL.M       189                      :CASING BOTTOM OF LOGGER
   CN.        SAKOVIA NATIONAL OIL CORPORATION  :COMPANY NAME
 PROV.        ALBERTA                  :PROVINCE
 CSGS.MM      177.800                  :CURRENT CASING SIZE
 DATE.        30-JAN-2007              :LOGGING DATE
  DCS.        30-JAN-2007              :DATE CIRCULATION STOPPED
 MUDD.K/M3    1130                     :DRILLING FLUID DENSITY
   FL.CM3     8                        :DRILLING FLUID LOSS
   PH.        9.5                      :DRILLING FLUID PH
  MUD.        GEL CHEM                 :DRILLING FLUID TYPE
 MUDV.S       80                       :DRILLING FLUID VISCOSITY
 DLAB.        31-JAN-2007              :DATE LOGGER AT BOTTOM
 DREF.        KELLY BUSHING            :DRILLING MEASURED FROM
  EDF.M       602.3                    :ELEVATION OF DERRICK FLOOR
   GL.M       598.6                    :ELEVATION OF GROUND LEVEL
 EREF.M       602.3                    :ELEVATION OF KELLY BUSHING
  ENG.        BRIAN GREEN             :ENGINEER'S NAME
   FL.        12-01-076-7W4M           :FIELD LOCATION
  FL1.        1AA333107668W200         :FIELD LOCATION LINE 1
  FL2.                                 :FIELD LOCATION LINE 2
   FN.        FIELD                  :FIELD NAME
 HID1.        ARRAY INDUCTION - SP LOG :HEADER IDENTIFIER LINE 1
 HID2.                                 :HEADER IDENTIFIER LINE 2
 HIDE.        PLATFORM EXPRESS         :HEADER IDENTIFIER
 EREF.        KELLY BUSHING            :LOG MEASURED FROM
 BASE.        NISKU - WP               :LOGGING UNIT LOCATION
 UNIT.        3030                     :LOGGING UNIT NUMBER
 MATR.        SAND                     :ROCK MATRIX TYPE
 RMCT.DEGC    9                        :MUD CAKE SAMPLE TEMPERATURE
 MDEN.K/M3    2650                     :MATRIX DENSITY
 RMFT.DEGC    9                        :MUD FILTRATE SAMPLE TEMPERATURE
 TMAX.DEGC    21                       :MAXIMUM RECORDED TEMPERATURE
 MRT1.                                 :MAX RECORDED TEMP 1
 MRT2.                                 :MAX RECORDED TEMP 2
 MUDS.        FLOWLINE                 :MUD SAMPLE SOURCE
  RMT.DEGC    9                        :MUD SAMPLE TEMPERATURE
  NMT.        NOBARITE                 :NUCLEAR MUD TYPE
  OS1.        AIT-TLD-HGNS-BHC         :OTHER SERVICES LINE 1
  OS2.                                 :OTHER SERVICES LINE 2
  OS3.                                 :OTHER SERVICES LINE 3
  OS4.                                 :OTHER SERVICES LINE 4
  OS5.                                 :OTHER SERVICES LINE 5
 PDAT.        GROUND LEVEL             :PERMANENT DATUM
   R1.        ALL TOOLS RUN AS PER TOOL SKETCH.  :REMARK LINE 1
  R10.                                 :REMARK LINE 10
  R11.                                 :REMARK LINE 11
  R12.        -                        :REMARK LINE 12
  R13.        -                        :REMARK LINE 13
  R14.        -                        :REMARK LINE 14
  R15.        -                        :REMARK LINE 15
  R16.        RIG: RIG #9        :REMARK LINE 16
  R17.        CREW: D. GILLS, K. SAWSHANK  :REMARK LINE 17
   R2.        AIT RUN IN COMPUTE STANDOFF MODE.  :REMARK LINE 2
   R3.        HGNS RUN WITHOUT BOWSPRING DUE TO HOLE SIZE.  :REMARK LINE 3
   R4.        SONIC RUN WITH STANDOFFS TO IMPROVE CENTRALIZATION.  :REMARK LINE 4
   R5.        -                        :REMARK LINE 5
   R6.        NO HI-RESOLUTION REQUESTED.  :REMARK LINE 6
   R7.        NO FMI LOG REQUESTED     :REMARK LINE 7
   R8.        -                        :REMARK LINE 8
   R9.                                 :REMARK LINE 9
RANGE.        07W4M                    :RANGE
  RMB.        4.684                    :OF MUD - BHT
  RMC.OHMM    10.320                   :RESISTIVITY OF MUD CAKE SAMPLE
 RMFB.        3.517                    :OF MUD FILTRATE - BHT
  RMF.OHMM    4.820                    :RESISTIVITY OF MUD FILTRATE SAMPLE
   RM.OHMM    6.420                    :RESISTIVITY OF MUD SAMPLE
  RUN.        ONE                      :RUN NUMBER
SECTION.      12-01                    :SECTION
 FACT.        11505834                 :FACTS NUMBER
 TIMC.        21:05                    :TIME CIRCULATION STOPPED
  TDD.M       424                      :TOTAL DEPTH - DRILLER
  TDL.M       423.2                    :TOTAL DEPTH - LOGGER
 TIML.        0:15                     :TIME LOGGER AT BOTTOM
  TLI.M       189                      :TOP LOG INTERVAL
TOWNSHIP.     076                      :TOWNSHIP
  WIT.        BILL HICKOCK           :WITNESS'S NAME
   WN.        BOB FIELD 00-0-00-0   :WELL NAME
~ASCII   DEPT        AHF30        AHF60        AHF90      AHFCO90         AHMF         GDEV           GR         HTEM         RXOZ           SP         TENS           DT         HCAL          TT1          TT2          TT3          TT4     DPHI_DOL     DPHI_LIM     DPHI_SAN         HDRA     NPOR_DOL     NPOR_LIM     NPOR_SAN         PEFZ         RHOZ
# ...
    393.50000     67.18187     67.01626     62.67573     15.95540      6.39991      2.69727     48.36975     11.88365    149.05544     37.36319    968.62992    397.13628    157.87700    746.27249    506.72337    745.41421    506.75519      0.41110      0.36288      0.33971      8.54461      0.27356      0.31333      0.36025      1.76074   2089.41989
    394.00000     72.58477     69.38822     65.68055     15.22523      6.39086      2.73585     52.11683     11.88365    193.32988     38.16732    996.35433    393.41134    158.93437    750.36179    503.88144    749.40820    504.05014      0.40536      0.35667      0.33328     -0.31644      0.31016      0.35536      0.39960      1.68196   2100.81600
    394.50000     48.11128     44.58908     45.30242     22.08731      6.36465      2.41068     52.56177     11.88365    161.83423     46.22736    978.70866    398.33504    158.93437    754.86105    512.86911    753.87513    512.34667      0.41491      0.36701      0.34399     -0.63400      0.31569      0.36303      0.40567      1.66743   2081.38029
    395.00000     32.44234     29.53709     29.62501     33.77073      6.33767      2.79168     59.95226     11.88365     57.55125     49.79003    963.38058    397.12568    159.42255    747.83818    514.23394    741.77296    513.58291      0.39053      0.34063      0.31665     20.79605      0.27159      0.31086      0.35806      1.83835   2127.49224
    395.50000     23.52997     22.76666     22.01600     45.46603      6.33563      2.51850     83.52184     11.88365     82.74736     60.29068    963.75328    382.58426    162.51128    730.26460    495.04142    730.70486    494.01571      0.37181      0.32037      0.29566     25.33004      0.24425      0.27870      0.32790      1.89550   2159.64048
    396.00000     24.35612     24.26328     23.39413     42.77726      6.29187      3.11687     93.63124     11.88365     21.60289     60.28199    938.27559    363.63399    161.05141    738.05462    489.19272    739.09352    487.62186      0.30016      0.24286      0.21533     25.37846      0.27903      0.31933      0.36607      2.00241   2301.05976
    396.50000     48.42518     48.86960     48.43273     20.70521      6.31179      3.07065     60.61944     11.88365     84.08249     51.76066    975.70604    394.95943    166.22901    737.40700    514.90810    742.09210    513.62934      0.40737      0.35885      0.33553      6.53952      0.30762      0.35194      0.39670      1.72533   2092.66276
    397.00000    111.02807    111.11558    106.59887      9.38446      6.33796      3.42702     59.41119     11.88365    146.43175     40.44226   1209.61680    400.01737    173.28892    758.73843    527.40634    758.02603    524.85493      0.42942      0.38271      0.36026      2.68281      0.31595      0.36391      0.40614      1.64916   2055.59029
    397.50000    166.16198    146.83912    144.83185      6.90479      6.34774      2.84237     48.01106     11.88365    299.15066     41.86713    951.29921    391.77748    173.35933    759.42577    519.21608    757.82735    516.93242      0.43026      0.38361      0.36120      9.94918      0.27395      0.31423      0.36077      1.64204   2054.50266
    398.00000    187.99860    175.12061    155.57266      6.42810      6.32816      2.97919     40.08436     11.88365    284.01128     41.45571   1038.74541    392.07786    162.77179    753.55895    514.05668    751.76665    514.08767      0.42504      0.37797      0.35535      3.47502      0.26704      0.30490      0.35295      1.65326   2064.22378
    398.50000    194.43661    177.99700    156.91555      6.37352      6.35624      2.87391     40.95842     11.88365    406.51222     37.55118   1370.32283    390.00146    167.23824    751.95502    511.90847    751.40393    511.68053      0.42229      0.37499      0.35227      2.39357      0.28607      0.32661      0.37352      1.56330   2069.55327
    399.00000    160.40690    139.78659    133.68173      7.48117      6.32032      3.01283     35.53089     11.88365    289.14350     42.33957   1161.81102    393.36740    166.28064    750.50944    512.96784    749.88191    512.17555      0.42971      0.38302      0.36059      2.33327      0.24784      0.28372      0.33213      1.61606   2054.82569
    399.50000    156.96351    143.36499    127.81322      7.82417      6.33572      2.34195     42.94376     11.88365    349.48510     45.65469   1164.23097    393.28771    165.68683    756.51616    517.11787    753.72451    516.67388      0.41514      0.36726      0.34425     -1.69325      0.28660      0.32826      0.37425      1.61288   2082.89485
    400.00000    161.09062    158.38511    134.52565      7.44128      6.37762      2.73129     43.08597     11.88365    302.58560     49.02444   1044.24934    393.39107    169.97255    749.86978    512.69518    748.25672    509.40216      0.41242      0.36431      0.34119      1.58764      0.27257      0.31034      0.35874      1.63437   2085.80622
    400.50000     61.90524     63.16873     56.38292     17.77442      6.33913      2.90442     48.87613     11.88365    133.71575     60.30512   1009.01575    384.95552    169.83407    745.03996    508.75181    743.78702    506.71436      0.38466      0.33429      0.31008      2.23630      0.24206      0.27733      0.32583      1.68587   2138.34990
    401.00000     27.49268     28.90241     26.55663     37.67319      6.32836      2.98413     97.98303     11.88365     34.19095     68.03379    945.56168    383.20585    169.24731    743.04671    505.04348    744.40522    503.89639      0.34220      0.28835      0.26247      3.95463      0.30339      0.34360      0.39136      1.88826   2217.97396
    401.50000     24.08327     25.97026     26.21959     38.14013      6.31070      1.89475     82.39810     11.88365     39.57448     65.10187    963.15748    386.27907    164.81842    742.45813    507.99806    741.27032    507.83470      0.36004      0.30764      0.28247     -2.04315      0.31717      0.36244      0.40682      1.84097   2182.20781
    402.00000     24.83190     22.76203     28.80832     34.71371      6.31839      2.79646     93.56251     11.88365     35.97531     66.59252    999.67717    388.88519    162.51128    742.13029    508.47924    742.55720    509.93796      0.35615      0.30344      0.27811     10.09504      0.29279      0.33413      0.38072      1.84911   2192.12547
    402.50000     35.04393     28.28369     33.13922     30.19939      6.34057      3.10020     81.83165     11.88365     34.83782     50.91896    950.91339    389.78116    159.25826    753.19640    509.08861    752.72436    508.48050      0.37059      0.31906      0.29430     19.07589      0.31095      0.35572      0.40033      1.81984   2164.78716
    403.00000     41.35769     65.70489     47.96680     20.84869      6.38961      2.73257     58.23547     11.88365    134.45004     38.54495    965.55906    403.72261    156.54976    767.96501    517.31400    769.41907    518.30532      0.41189      0.36374      0.34061      9.59225      0.30823      0.35481      0.39788      1.84115   2088.71601
    403.50000     49.47917     61.41392     53.01778     18.86191      6.36822      2.65483     62.32164     11.88365    199.89162     36.38238    981.37008    421.87072    156.75630    776.54033    528.95368    780.29043    528.49729      0.44292      0.39731      0.37539      2.59660      0.33051      0.37927      0.42128      1.72024   2026.95912
    404.00000     54.87233     60.80562     56.83934     17.59499      6.39776      3.17946     60.45955     11.88365     58.48081     31.54134    896.34646    416.18193    160.12668    777.23865    532.79340    777.15330    531.34209      0.41939      0.37185      0.34901     -2.08617      0.34307      0.39508      0.43476      1.97331   2075.34400
    404.50000     66.59637     67.57453     65.50931     15.26503      6.39535      2.85819     61.62775     11.88365     53.67594     30.71391    881.98163    398.25414    160.84018    764.99902    513.28697    764.07977    513.11878      0.39089      0.34102      0.31706      5.30765      0.28201      0.32227      0.36920      1.79377   2130.12220
