~VERSION 
 VERS.        2.00                     :CWLS Log ASCII Standard Version
 WRAP.        NO                       :One Line per depth step
 PROG.        2.0.76                   :LAS Program name and version
SOURCE.       AIT_  :DLIS File Name
~WELL 
 STRT.M       347.50000                          :START DEPTH
 STOP.M       424.50000                          :STOP DEPTH
 STEP.M       0.50000                            :STEP
 NULL.        -999.25000                         :NULL VALUE
 COMP.        KOREA NATIONAL OIL CORPORATION     :COMPANY
 WELL.        xxxx xxxx 00-0-00-0             :WELL
  FLD.        FIELD                            :FIELD
  LOC.        00-01-006-0W0M                     :LOCATION
 PROV.        ALBERTA                            :PROVINCE
  LIC.        0234567                            :LICENCE NUMBER
  UWI.        1AA333107668W200                   :UNIQUE WELL ID
 SRVC.        SCHLUMBERGER                       :SERVICE COMPANY
 DATE.        30-JAN-2007                        :LOGGING DATE
~CURVE 
#MNEM.UNIT    VALUE                    :DESCRIPTION
#----.----    ---------------          :-------------------
 DEPT.M       00 001 00 00             :Depth Index
AHF30.OHMM                             :ARRAY INDUCTION FOUR FOOT RESISTIVITY A30
AHF60.OHMM                             :ARRAY INDUCTION FOUR FOOT RESISTIVITY A60
AHF90.OHMM                             :ARRAY INDUCTION FOUR FOOT RESISTIVITY A90
AHFCO90.MM/M                           :ARRAY INDUCTION FOUR FOOT CONDUCTIVITY A90
 AHMF.OHMM                             :ARRAY INDUCTION MUD RESISTIVITY FULLY CALIBRATED
 GDEV.DEG                              :HGNS DEVIATION
   GR.GAPI                             :GAMMA-RAY
 HTEM.DEGC                             :HTC TEMPERATURE
 RXOZ.OHMM                             :MCFL STANDARD RESOLUTION INVADED ZONE RESISTIVITY
   SP.MV                               :SPONTANEOUS POTENTIAL
 TENS.LBF                              :CABLE TENSION
   DT.US/M                             :DELTA-T
 HCAL.MM                               :HRCC CAL. CALIPER
  TT1.US                               :TRANSIT TIME 1
  TT2.US                               :TRANSIT TIME 2
  TT3.US                               :TRANSIT TIME 3
  TT4.US                               :TRANSIT TIME 4
DPHI_DOL.V/V                           :DENSITY POROSITY (MATRIX DOLOMITE)
DPHI_LIM.V/V                           :DENSITY POROSITY (MATRIX LIMESTONE)
DPHI_SAN.V/V                           :DENSITY POROSITY (MATRIX SANDSTONE)
 HDRA.K/M3                             :HRDD DENSITY CORRECTION
NPOR_DOL.V/V                           :ENHANCED THERMAL NEUTRON POROSITY (MATRIX DOLOMITE)
NPOR_LIM.V/V                           :ENHANCED THERMAL NEUTRON POROSITY (MATRIX LIMESTONE)
NPOR_SAN.V/V                           :ENHANCED THERMAL NEUTRON POROSITY (MATRIX SANDSTONE)
 PEFZ.                                 :HRDD STANDARD RESOLUTION FORMATION PHOTOELECTRIC FACTOR
 RHOZ.K/M3                             :HRDD STANDARD RESOLUTION FORMATION DENSITY
~PARAMETER 
#MNEM.UNIT    VALUE                    :DESCRIPTION
#----.----    ---------------          :-------------------
  APD.M       3.7                      :ABOVE PERMANENT DATUM
  LIC.        0369058                  :LICENSE NUMBER
  BHT.DEGC    21                       :BOTTOM HOLE TEMPERATURE (USED IN CALCULATIONS)
  BLI.M       420.8                    :BOTTOM LOG INTERVAL
   BS.MM      251.000                  :BIT SIZE
 CSGD.M       189                      :CASING BOTTOM OF DRILLER
 CSGL.M       189                      :CASING BOTTOM OF LOGGER
   CN.        SAKOVIA NATIONAL OIL CORPORATION  :COMPANY NAME
 PROV.        ALBERTA                  :PROVINCE
 CSGS.MM      177.800                  :CURRENT CASING SIZE
 DATE.        30-JAN-2007              :LOGGING DATE
  DCS.        30-JAN-2007              :DATE CIRCULATION STOPPED
 MUDD.K/M3    1130                     :DRILLING FLUID DENSITY
   FL.CM3     8                        :DRILLING FLUID LOSS
   PH.        9.5                      :DRILLING FLUID PH
  MUD.        GEL CHEM                 :DRILLING FLUID TYPE
 MUDV.S       80                       :DRILLING FLUID VISCOSITY
 DLAB.        31-JAN-2007              :DATE LOGGER AT BOTTOM
 DREF.        KELLY BUSHING            :DRILLING MEASURED FROM
  EDF.M       602.3                    :ELEVATION OF DERRICK FLOOR
   GL.M       598.6                    :ELEVATION OF GROUND LEVEL
 EREF.M       602.3                    :ELEVATION OF KELLY BUSHING
  ENG.        BRIAN GREEN             :ENGINEER'S NAME
   FL.        12-01-076-7W4M           :FIELD LOCATION
  FL1.        1AA333107668W200         :FIELD LOCATION LINE 1
  FL2.                                 :FIELD LOCATION LINE 2
   FN.        FIELD                  :FIELD NAME
 HID1.        ARRAY INDUCTION - SP LOG :HEADER IDENTIFIER LINE 1
 HID2.                                 :HEADER IDENTIFIER LINE 2
 HIDE.        PLATFORM EXPRESS         :HEADER IDENTIFIER
 EREF.        KELLY BUSHING            :LOG MEASURED FROM
 BASE.        NISKU - WP               :LOGGING UNIT LOCATION
 UNIT.        3030                     :LOGGING UNIT NUMBER
 MATR.        SAND                     :ROCK MATRIX TYPE
 RMCT.DEGC    9                        :MUD CAKE SAMPLE TEMPERATURE
 MDEN.K/M3    2650                     :MATRIX DENSITY
 RMFT.DEGC    9                        :MUD FILTRATE SAMPLE TEMPERATURE
 TMAX.DEGC    21                       :MAXIMUM RECORDED TEMPERATURE
 MRT1.                                 :MAX RECORDED TEMP 1
 MRT2.                                 :MAX RECORDED TEMP 2
 MUDS.        FLOWLINE                 :MUD SAMPLE SOURCE
  RMT.DEGC    9                        :MUD SAMPLE TEMPERATURE
  NMT.        NOBARITE                 :NUCLEAR MUD TYPE
  OS1.        AIT-TLD-HGNS-BHC         :OTHER SERVICES LINE 1
  OS2.                                 :OTHER SERVICES LINE 2
  OS3.                                 :OTHER SERVICES LINE 3
  OS4.                                 :OTHER SERVICES LINE 4
  OS5.                                 :OTHER SERVICES LINE 5
 PDAT.        GROUND LEVEL             :PERMANENT DATUM
   R1.        ALL TOOLS RUN AS PER TOOL SKETCH.  :REMARK LINE 1
  R10.                                 :REMARK LINE 10
  R11.                                 :REMARK LINE 11
  R12.        -                        :REMARK LINE 12
  R13.        -                        :REMARK LINE 13
  R14.        -                        :REMARK LINE 14
  R15.        -                        :REMARK LINE 15
  R16.        RIG: RIG #9        :REMARK LINE 16
  R17.        CREW: D. GILLS, K. SAWSHANK  :REMARK LINE 17
   R2.        AIT RUN IN COMPUTE STANDOFF MODE.  :REMARK LINE 2
   R3.        HGNS RUN WITHOUT BOWSPRING DUE TO HOLE SIZE.  :REMARK LINE 3
   R4.        SONIC RUN WITH STANDOFFS TO IMPROVE CENTRALIZATION.  :REMARK LINE 4
   R5.        -                        :REMARK LINE 5
   R6.        NO HI-RESOLUTION REQUESTED.  :REMARK LINE 6
   R7.        NO FMI LOG REQUESTED     :REMARK LINE 7
   R8.        -                        :REMARK LINE 8
   R9.                                 :REMARK LINE 9
RANGE.        07W4M                    :RANGE
  RMB.        4.684                    :OF MUD - BHT
  RMC.OHMM    10.320                   :RESISTIVITY OF MUD CAKE SAMPLE
 RMFB.        3.517                    :OF MUD FILTRATE - BHT
  RMF.OHMM    4.820                    :RESISTIVITY OF MUD FILTRATE SAMPLE
   RM.OHMM    6.420                    :RESISTIVITY OF MUD SAMPLE
  RUN.        ONE                      :RUN NUMBER
SECTION.      12-01                    :SECTION
 FACT.        11505834                 :FACTS NUMBER
 TIMC.        21:05                    :TIME CIRCULATION STOPPED
  TDD.M       424                      :TOTAL DEPTH - DRILLER
  TDL.M       423.2                    :TOTAL DEPTH - LOGGER
 TIML.        0:15                     :TIME LOGGER AT BOTTOM
  TLI.M       189                      :TOP LOG INTERVAL
TOWNSHIP.     076                      :TOWNSHIP
  WIT.        BILL HICKOCK           :WITNESS'S NAME
   WN.        BOB FIELD 00-0-00-0   :WELL NAME
~ASCII   DEPT        AHF30        AHF60        AHF90      AHFCO90         AHMF         GDEV           GR         HTEM         RXOZ           SP         TENS           DT         HCAL          TT1          TT2          TT3          TT4     DPHI_DOL     DPHI_LIM     DPHI_SAN         HDRA     NPOR_DOL     NPOR_LIM     NPOR_SAN         PEFZ         RHOZ
    347.50000   -999.25000   -999.25000   -999.25000   -999.25000   -999.25000   -999.25000   -999.25000   -999.25000   -999.25000   -999.25000   -999.25000   -999.25000   -999.25000   -999.25000   -999.25000   -999.25000   -999.25000   -999.25000   -999.25000   -999.25000   -999.25000   -999.25000   -999.25000   -999.25000   -999.25000   -999.25000
    348.00000      3.93997      4.16096      3.95522    252.83354      6.17318      2.92226    111.88619     11.88365      2.92895     88.05955   1016.97638    443.31356    159.46715    796.14504    551.19963    796.73322    556.28283      0.32804      0.27303      0.24659     40.50895      0.37245      0.43159      0.46583      2.73369   2241.98144
    348.50000      4.54676      4.86490      4.47785    223.33853      6.17536      2.97720    114.00233     11.88365      4.27086     83.73409   1132.32546    419.03008    162.51128    806.90357    543.66133    805.22759    539.77984      0.31360      0.25741      0.23040     69.24023      0.30724      0.35384      0.39677      2.88258   2270.79001
    349.00000      4.81644      5.45367      4.93500    202.63431      6.19420      2.71017    104.85974     11.88365      4.03546     84.23688    972.68241    421.55692    161.31897    793.83283    537.90820    794.12738    539.43527      0.31107      0.25466      0.22756     16.11973      0.35967      0.41193      0.45171      2.82603   2274.56197
    349.50000      3.97269      4.17126      4.13549    241.98939      6.20617      2.82908    107.88600     11.88365      3.88162     84.00492    987.87402    421.61018    159.62440    805.82430    538.02824    803.90517    537.85592      0.31311      0.25687      0.22985     38.39035      0.34153      0.39458      0.43339      2.85852   2270.56097
    350.00000      2.76425      2.83813      2.80272    357.18612      6.17532      3.03335    122.94585     11.88365      3.70632     83.90764   1016.14436    433.14836    156.86427    807.86609    546.07077    807.86010    546.90959      0.33332      0.27874      0.25251     40.11516      0.37462      0.43277      0.46792      2.73707   2232.92502
    350.50000      2.03168      2.16096      2.09226    478.44471      6.19379      3.06239    118.18960     11.88365      3.34662     85.02772   1144.35696    439.41565    157.61533    819.28854    554.88339    819.66382    555.07246      0.32711      0.27202      0.24555     33.04575      0.33222      0.38667      0.42411      2.71289   2244.02698
    351.00000      1.35469      1.46981      1.46381    683.38697      6.15242      3.09519    122.03411     11.88365      3.68951     83.43996    956.40945    437.79008    156.61078    826.01174    555.69935    825.54324    555.37672      0.33624      0.28189      0.25578     26.71297      0.30999      0.35874      0.40013      2.67612   2228.21369
    351.50000      1.02246      1.09694      1.13945    877.71881      6.14544      2.94116    121.02204     11.88365      2.63901     85.84662   1004.79790    445.71446    154.33885    828.60135    561.35240    827.99113    560.99421      0.33831      0.28414      0.25811     26.57943      0.38726      0.44742      0.48099      2.75505   2222.29965
    352.00000      0.83502      0.86936      0.90701   1102.55842      6.14896      2.98734    123.31017     11.88365      2.77524     84.79478   1083.02100    448.44704    155.35747    836.41325    562.84045    836.71097    562.16169      0.33245      0.27779      0.25153      6.33365      0.37995      0.43866      0.47338      2.74247   2237.11595
    352.50000      1.07543      1.11841      1.17054    854.39472      6.16036      2.69560    116.65948     11.88365      4.70689     82.68848   1047.25984    448.72582    155.35747    831.99693    565.39113    832.31820    564.22067      0.33899      0.28487      0.25887     17.05999      0.40824      0.47630      0.50327      2.83478   2222.81633
    353.00000      1.99243      2.11911      2.04775    488.80239      6.19629      2.82288    109.26514     11.88365      4.80857     80.75574    932.26247    442.47617    154.54538    829.27182    557.88242    829.07318    558.55025      0.29334      0.23549      0.20769     46.55861      0.34439      0.39711      0.43625      3.25957   2311.66821
    353.50000      3.01696      3.15596      2.84859    351.07403      6.18474      3.05927    111.58054     11.88365      6.45617     81.23458    887.74016    444.79227    154.85754    836.75515    557.36051    837.49877    558.61946      0.31578      0.25976      0.23284      5.99474      0.36248      0.42071      0.45564      3.02622   2261.05966
    354.00000      3.45505      3.55040      3.21743    310.81672      6.20124      3.05685    118.27476     11.88365      6.38182     79.76181    927.06299    454.75878    154.75661    840.29815    564.90806    839.74265    564.06418      0.33008      0.27523      0.24888      6.20832      0.37840      0.43894      0.47209      2.99461   2239.47050
    354.50000      3.57673      3.71784      3.45199    289.69284      6.17790      3.00869    115.56227     11.88365      5.78675     83.31709    883.43307    453.92849    153.15594    842.84659    567.04822    843.81828    566.76696      0.32816      0.27316      0.24673     29.64198      0.35695      0.41523      0.45004      2.83956   2243.31471
    355.00000      3.70612      3.83770      3.62956    275.51762      6.16239      3.42014    110.70946     11.88365      5.21985     82.79003    929.13911    453.66911    155.76820    845.12122    566.62436    844.62319    566.17592      0.31700      0.26108      0.23421     48.94829      0.34658      0.40081      0.43867      2.90098   2264.57540
    355.50000      3.87278      3.93668      3.80856    262.57604      6.17928      2.53062    112.37336     11.88365      5.28292     81.43209    904.46457    457.43965    156.54976    823.24966    563.00260    822.00259    551.47397      0.33081      0.27603      0.24970      7.40517      0.38351      0.44443      0.47733      2.98920   2232.79638
    356.00000      4.14682      4.13106      4.07957    245.12538      6.28043      3.68770    102.64650     11.88365      6.10379     80.91650    980.06037    421.55987    155.87851    825.40476    546.22948    824.26553    545.62176      0.25019      0.18881      0.15931     42.50387      0.34476      0.40264      0.43754      3.24506   2388.46744
    356.50000      4.43205      4.34256      4.38210    228.25997      6.20725      3.05324    113.36564     11.88365      5.31291     80.43750    982.49344    455.74134    151.78056    822.15285    557.17646    819.53533    558.47906      0.32369      0.26832      0.24172     64.72342      0.42265      0.48889      0.51731      2.82153   2248.99773
    357.00000      8.08189      7.76292      8.04415    124.45399      6.32617      3.06205     70.19462     11.88365      9.68144     43.41978   1050.40157    480.67518    149.21992    869.51701    578.67571    869.15150    574.97464      0.39455      0.34498      0.32116     21.19347      0.19197      0.21598      0.26563      2.41945   2123.48368
    357.50000     31.10676     29.85311     30.03956     33.66007      6.37718      2.84384     38.32467     11.88365     84.98952     32.18717   1023.43307    507.19099    147.01135    852.47132    594.94037    850.37736    588.14083      0.47856      0.43587      0.41536    -36.74185      0.17761      0.20055      0.25219      2.18932   1963.35106
    358.00000     79.48456     88.77274     61.76559     16.19451      6.39761      3.38839     39.37710     11.88365    121.13122     37.45636   1026.34121    420.64725    145.81906    828.56901    543.68554    817.82371    526.64258      0.44580      0.40043      0.37863    -17.12101      0.30058      0.34372      0.38922      2.05998   2025.70237
    358.50000     80.86819     83.34186     70.26658     14.23601      6.40546      3.50911     32.27385     11.88365    167.40245     43.34104    929.09449    410.62713    148.85144    763.65593    516.20203    754.22036    502.97252      0.43464      0.38835      0.36611      9.81838      0.28176      0.32055      0.36863      1.94336   2041.04090
