~VERSION 
 VERS.        2.00                     :CWLS Log ASCII Standard Version
 WRAP.        NO                       :One Line per depth step
 PROG.        2.0.76                   :LAS Program name and version
SOURCE.       AIT_  :DLIS File Name
~WELL 
 STRT.M       347.50000                          :START DEPTH
 STOP.M       424.50000                          :STOP DEPTH
 STEP.M       0.50000                            :STEP
 NULL.        -999.25000                         :NULL VALUE
 COMP.        KOREA NATIONAL OIL CORPORATION     :COMPANY
 WELL.        xxxx xxxx 00-0-00-0             :WELL
  FLD.        FIELD                            :FIELD
  LOC.        00-01-006-0W0M                     :LOCATION
 PROV.        ALBERTA                            :PROVINCE
  LIC.        0234567                            :LICENCE NUMBER
  UWI.        1AA333107668W200                   :UNIQUE WELL ID
 SRVC.        SCHLUMBERGER                       :SERVICE COMPANY
 DATE.        30-JAN-2007                        :LOGGING DATE
~CURVE 
#MNEM.UNIT    VALUE                    :DESCRIPTION
#----.----    ---------------          :-------------------
 DEPT.M       00 001 00 00             :Depth Index
AHF30.OHMM                             :ARRAY INDUCTION FOUR FOOT RESISTIVITY A30
AHF60.OHMM                             :ARRAY INDUCTION FOUR FOOT RESISTIVITY A60
AHF90.OHMM                             :ARRAY INDUCTION FOUR FOOT RESISTIVITY A90
AHFCO90.MM/M                           :ARRAY INDUCTION FOUR FOOT CONDUCTIVITY A90
 AHMF.OHMM                             :ARRAY INDUCTION MUD RESISTIVITY FULLY CALIBRATED
 GDEV.DEG                              :HGNS DEVIATION
   GR.GAPI                             :GAMMA-RAY
 HTEM.DEGC                             :HTC TEMPERATURE
 RXOZ.OHMM                             :MCFL STANDARD RESOLUTION INVADED ZONE RESISTIVITY
   SP.MV                               :SPONTANEOUS POTENTIAL
 TENS.LBF                              :CABLE TENSION
   DT.US/M                             :DELTA-T
 HCAL.MM                               :HRCC CAL. CALIPER
  TT1.US                               :TRANSIT TIME 1
  TT2.US                               :TRANSIT TIME 2
  TT3.US                               :TRANSIT TIME 3
  TT4.US                               :TRANSIT TIME 4
DPHI_DOL.V/V                           :DENSITY POROSITY (MATRIX DOLOMITE)
DPHI_LIM.V/V                           :DENSITY POROSITY (MATRIX LIMESTONE)
DPHI_SAN.V/V                           :DENSITY POROSITY (MATRIX SANDSTONE)
 HDRA.K/M3                             :HRDD DENSITY CORRECTION
NPOR_DOL.V/V                           :ENHANCED THERMAL NEUTRON POROSITY (MATRIX DOLOMITE)
NPOR_LIM.V/V                           :ENHANCED THERMAL NEUTRON POROSITY (MATRIX LIMESTONE)
NPOR_SAN.V/V                           :ENHANCED THERMAL NEUTRON POROSITY (MATRIX SANDSTONE)
 PEFZ.                                 :HRDD STANDARD RESOLUTION FORMATION PHOTOELECTRIC FACTOR
 RHOZ.K/M3                             :HRDD STANDARD RESOLUTION FORMATION DENSITY
~PARAMETER 
#MNEM.UNIT    VALUE                    :DESCRIPTION
#----.----    ---------------          :-------------------
  APD.M       3.7                      :ABOVE PERMANENT DATUM
  LIC.        0369058                  :LICENSE NUMBER
  BHT.DEGC    21                       :BOTTOM HOLE TEMPERATURE (USED IN CALCULATIONS)
  BLI.M       420.8                    :BOTTOM LOG INTERVAL
   BS.MM      251.000                  :BIT SIZE
 CSGD.M       189                      :CASING BOTTOM OF DRILLER
 CSGL.M       189                      :CASING BOTTOM OF LOGGER
   CN.        SAKOVIA NATIONAL OIL CORPORATION  :COMPANY NAME
 PROV.        ALBERTA                  :PROVINCE
 CSGS.MM      177.800                  :CURRENT CASING SIZE
 DATE.        30-JAN-2007              :LOGGING DATE
  DCS.        30-JAN-2007              :DATE CIRCULATION STOPPED
 MUDD.K/M3    1130                     :DRILLING FLUID DENSITY
   FL.CM3     8                        :DRILLING FLUID LOSS
   PH.        9.5                      :DRILLING FLUID PH
  MUD.        GEL CHEM                 :DRILLING FLUID TYPE
 MUDV.S       80                       :DRILLING FLUID VISCOSITY
 DLAB.        31-JAN-2007              :DATE LOGGER AT BOTTOM
 DREF.        KELLY BUSHING            :DRILLING MEASURED FROM
  EDF.M       602.3                    :ELEVATION OF DERRICK FLOOR
   GL.M       598.6                    :ELEVATION OF GROUND LEVEL
 EREF.M       602.3                    :ELEVATION OF KELLY BUSHING
  ENG.        BRIAN GREEN             :ENGINEER'S NAME
   FL.        12-01-076-7W4M           :FIELD LOCATION
  FL1.        1AA333107668W200         :FIELD LOCATION LINE 1
  FL2.                                 :FIELD LOCATION LINE 2
   FN.        FIELD                  :FIELD NAME
 HID1.        ARRAY INDUCTION - SP LOG :HEADER IDENTIFIER LINE 1
 HID2.                                 :HEADER IDENTIFIER LINE 2
 HIDE.        PLATFORM EXPRESS         :HEADER IDENTIFIER
 EREF.        KELLY BUSHING            :LOG MEASURED FROM
 BASE.        NISKU - WP               :LOGGING UNIT LOCATION
 UNIT.        3030                     :LOGGING UNIT NUMBER
 MATR.        SAND                     :ROCK MATRIX TYPE
 RMCT.DEGC    9                        :MUD CAKE SAMPLE TEMPERATURE
 MDEN.K/M3    2650                     :MATRIX DENSITY
 RMFT.DEGC    9                        :MUD FILTRATE SAMPLE TEMPERATURE
 TMAX.DEGC    21                       :MAXIMUM RECORDED TEMPERATURE
 MRT1.                                 :MAX RECORDED TEMP 1
 MRT2.                                 :MAX RECORDED TEMP 2
 MUDS.        FLOWLINE                 :MUD SAMPLE SOURCE
  RMT.DEGC    9                        :MUD SAMPLE TEMPERATURE
  NMT.        NOBARITE                 :NUCLEAR MUD TYPE
  OS1.        AIT-TLD-HGNS-BHC         :OTHER SERVICES LINE 1
  OS2.                                 :OTHER SERVICES LINE 2
  OS3.                                 :OTHER SERVICES LINE 3
  OS4.                                 :OTHER SERVICES LINE 4
  OS5.                                 :OTHER SERVICES LINE 5
 PDAT.        GROUND LEVEL             :PERMANENT DATUM
   R1.        ALL TOOLS RUN AS PER TOOL SKETCH.  :REMARK LINE 1
  R10.                                 :REMARK LINE 10
  R11.                                 :REMARK LINE 11
  R12.        -                        :REMARK LINE 12
  R13.        -                        :REMARK LINE 13
  R14.        -                        :REMARK LINE 14
  R15.        -                        :REMARK LINE 15
  R16.        RIG: RIG #9        :REMARK LINE 16
  R17.        CREW: D. GILLS, K. SAWSHANK  :REMARK LINE 17
   R2.        AIT RUN IN COMPUTE STANDOFF MODE.  :REMARK LINE 2
   R3.        HGNS RUN WITHOUT BOWSPRING DUE TO HOLE SIZE.  :REMARK LINE 3
   R4.        SONIC RUN WITH STANDOFFS TO IMPROVE CENTRALIZATION.  :REMARK LINE 4
   R5.        -                        :REMARK LINE 5
   R6.        NO HI-RESOLUTION REQUESTED.  :REMARK LINE 6
   R7.        NO FMI LOG REQUESTED     :REMARK LINE 7
   R8.        -                        :REMARK LINE 8
   R9.                                 :REMARK LINE 9
RANGE.        07W4M                    :RANGE
  RMB.        4.684                    :OF MUD - BHT
  RMC.OHMM    10.320                   :RESISTIVITY OF MUD CAKE SAMPLE
 RMFB.        3.517                    :OF MUD FILTRATE - BHT
  RMF.OHMM    4.820                    :RESISTIVITY OF MUD FILTRATE SAMPLE
   RM.OHMM    6.420                    :RESISTIVITY OF MUD SAMPLE
  RUN.        ONE                      :RUN NUMBER
SECTION.      12-01                    :SECTION
 FACT.        11505834                 :FACTS NUMBER
 TIMC.        21:05                    :TIME CIRCULATION STOPPED
  TDD.M       424                      :TOTAL DEPTH - DRILLER
  TDL.M       423.2                    :TOTAL DEPTH - LOGGER
 TIML.        0:15                     :TIME LOGGER AT BOTTOM
  TLI.M       189                      :TOP LOG INTERVAL
TOWNSHIP.     076                      :TOWNSHIP
  WIT.        BILL HICKOCK           :WITNESS'S NAME
   WN.        BOB FIELD 00-0-00-0   :WELL NAME
~ASCII   DEPT        AHF30        AHF60        AHF90      AHFCO90         AHMF         GDEV           GR         HTEM         RXOZ           SP         TENS           DT         HCAL          TT1          TT2          TT3          TT4     DPHI_DOL     DPHI_LIM     DPHI_SAN         HDRA     NPOR_DOL     NPOR_LIM     NPOR_SAN         PEFZ         RHOZ
# ...
    359.00000     32.23865     31.37810     32.19299     31.14713      6.34978      3.38293     66.72139     11.88365     76.75649     61.08547   1015.28871    379.12259    149.14012    738.84570    498.27339    738.29423    493.30493      0.35617      0.30346      0.27813     56.27163      0.21330      0.24390      0.29372      2.00889   2193.81441
    359.50000     24.41064     22.98690     23.90127     41.83878      6.41615      3.09906     70.86890     11.88365     29.71074     57.67060    936.06562    386.79996    156.54976    731.90860    491.46554    730.44626    491.68861      0.35595      0.30322      0.27788     18.27819      0.30466      0.34775      0.39346      1.87098   2191.56747
    360.00000     22.69918     21.07042     22.09091     45.27678      6.36697      3.57031     74.51575     11.88365     32.87718     62.38386    936.62992    391.07762    159.73471    738.51142    502.13612    736.48694    500.60015      0.36364      0.31154      0.28650     -1.13054      0.27859      0.31720      0.36521      1.85390   2177.90259
    360.50000     18.30082     16.98497     17.86101     55.98938      6.32795      3.35064     77.54971     11.88365     19.73691     64.81250    997.13123    381.08447    154.11353    727.32176    498.60494    726.29710    498.13086      0.34394      0.29023      0.26442      5.97264      0.23983      0.27325      0.32299      1.94622   2215.12715
    361.00000     16.75015     15.60460     16.28351     61.41191      6.31292      3.19049     89.77867     11.88365     16.97368     61.38927   1071.53281    377.55598    155.95361    723.49997    490.83944    723.98290    493.48967      0.34605      0.29251      0.26678      1.78840      0.26899      0.30601      0.35479      1.90486   2209.93023
    361.50000     16.15153     15.28610     15.60130     64.09943      6.29324      3.66353     82.57540     11.88365     33.95998     61.22195    968.76378    379.94316    150.58826    719.00843    492.44784    718.44226    491.44197      0.35128      0.29817      0.27265      8.90654      0.28067      0.32026      0.36767      1.99021   2200.53220
    362.00000     13.26675     12.82356     13.02490     76.79557      6.29354      2.94496     92.47391     11.88365     28.23418     62.00755    962.18373    370.42913    149.99211    715.11392    484.69036    716.05956    484.20857      0.34810      0.29473      0.26909     32.01583      0.22203      0.25324      0.30329      2.16357   2201.69995
    362.50000     10.84905     10.65564     10.76314     92.91575      6.29354      2.25413    103.57539     11.88365     16.50883     69.73114    958.50394    373.79688    151.18440    723.42804    483.49921    722.65590    485.07580      0.30080      0.24355      0.21605     55.12726      0.27357      0.31197      0.35978      2.23568   2295.03450
    363.00000      9.73907      9.75793      9.74097    102.66010      6.30136      3.41225    125.08359     11.88365     14.19698     70.20423    921.10236    386.98322    151.78056    724.90348    497.46168    725.59836    496.91139      0.31407      0.25791      0.23092     40.58525      0.27663      0.31563      0.36327      2.34252   2268.19869
    363.50000     10.09436     10.24097     10.18167     98.22209      6.29620      0.53840    109.02731     11.88365     13.55327     69.39452   1013.22835    374.88426    152.36263    722.04273    496.26686    721.57733    493.90671      0.28007      0.22113      0.19281     62.51383      0.22960      0.26265      0.31188      2.39630   2331.12594
    364.00000     13.24924     13.17651     13.08583     76.44511      6.29123      2.87827     99.39580     11.88365     13.79112     67.04314    991.67979    368.70525    155.20725    722.03328    483.92912    721.43120    486.39188      0.24146      0.17936      0.14952     73.60812      0.28207      0.32193      0.36901      2.37586   2414.93520
    364.50000     23.02146     22.69019     21.78547     45.97040      6.31521      3.29565     71.52447     11.88365     42.27480     55.18258   1025.52756    383.48532    148.20366    722.98343    497.19869    723.25426    496.87035      0.36939      0.31776      0.29295     19.10548      0.25280      0.28989      0.33770      2.01164   2158.27282
    365.00000     31.84276     31.59224     29.14390     34.31266      6.36038      2.94213     73.79556     11.88365    192.77652     56.18586   1078.75066    383.33223    151.18440    726.30351    496.23377    725.32403    495.75087      0.37224      0.32085      0.29615     33.58873      0.29123      0.33207      0.37899      1.88029   2161.16547
    365.50000     24.32997     24.18063     22.75475     43.95928      6.42369      2.83451     82.09088     11.88365     14.66665     58.76624   1043.11286    376.53114    153.28737    725.15002    488.53941    727.23030    488.44758      0.32341      0.26801      0.24140     60.96516      0.24845      0.28320      0.33231      1.96670   2258.73855
    366.00000     18.84921     18.90241     18.58971     53.81496      6.43077      2.66670     65.27106     11.88365    109.98062     50.61909   1016.11024    381.04544    151.05063    724.30642    495.67391    723.35906    497.85320      0.36437      0.31233      0.28733     19.78892      0.24721      0.28355      0.33158      1.91838   2171.15469
    366.50000     13.89592     13.98630     13.89216     71.98938      6.29407      2.93209    101.06262     11.88365     14.93111     67.74426   1046.47507    376.06194    152.71469    724.00410    491.19045    720.49281    490.64186      0.26617      0.20609      0.17722     69.04950      0.28841      0.32747      0.37563      2.39881   2360.07887
    367.00000     15.87660     15.90610     15.59036     64.16560      6.35456      2.99213     89.83008     11.88365     23.53429     54.71325    947.28084    379.04059    153.83893    725.68288    494.38365    725.02115    491.29694      0.34039      0.28638      0.26043     31.77182      0.27910      0.31793      0.36583      2.21608   2219.57263
    367.50000     14.51106     14.94095     14.81313     67.52309      6.37546      2.09802     94.87187     12.08327     27.47464     66.02559    987.07874    374.79985    149.09553    722.45936    490.02659    722.80946    492.40846      0.36972      0.31811      0.29332     12.37962      0.27200      0.31096      0.35841      2.18316   2161.59104
    368.00000     11.83241     12.12129     12.15871     82.24688      6.24979      2.03099    108.23816     11.88365     14.05525     71.25705    983.39370    378.75202    153.79433    714.47152    492.93449    715.01990    493.71573      0.27654      0.21731      0.18885     70.94515      0.28272      0.32392      0.37012      2.33577   2341.63788
    368.50000     12.75812     12.74859     12.78750     78.20209      6.27828      2.42877    102.60964     11.88365     19.53454     61.10187   1163.06299    375.73880    152.75224    724.22587    487.65129    725.04247    486.39922      0.30323      0.24619      0.21877     67.49840      0.27809      0.31648      0.36469      2.27099   2289.03007
    369.00000     14.91304     14.65501     14.39443     69.47634      6.33897      3.07268     84.76546     11.88365     21.05695     59.61024    985.60630    379.07063    151.18440    731.04914    491.25330    730.13803    491.68144      0.31319      0.25696      0.22994     54.94484      0.26820      0.30589      0.35411      2.17563   2272.52106
    369.50000     15.29742     15.11424     14.54308     68.76237      6.31953      3.17001     84.58716     11.88365     40.28096     63.46211   1052.77165    387.56646    148.79980    724.61199    497.12382    726.00430    497.14615      0.35315      0.30019      0.27475     55.68511      0.26447      0.30116      0.34989      2.26050   2194.18582
    370.00000     13.85198     14.08949     13.56248     73.73378      6.31814      3.35009     84.98084     11.88365     24.33332     63.88402   1200.88189    379.65539    150.26907    728.93222    492.98465    728.24295    496.70896      0.32752      0.27246      0.24601     52.18955      0.24872      0.28404      0.33292      2.27090   2245.43970
